"","city","state","city_size","mode","n","percent","moe","state_abb","state_region","city_state","lon","lat"
"1","Aberdeen city","South Dakota","Small","Bike",110,0.8,0.5,"SD","North Central","Aberdeen city, South Dakota",-98.4864829,45.4646985
"2","Acworth city","Georgia","Small","Bike",0,0,0.4,"GA","South","Acworth city, Georgia",-84.6768796,34.0659329
"3","Addison village","Illinois","Small","Bike",43,0.2,0.3,"IL","North Central","Addison village, Illinois",-87.9889556,41.931696
"4","Adelanto city","California","Small","Bike",0,0,0.5,"CA","West","Adelanto city, California",-117.409215,34.5827699
"5","Adrian city","Michigan","Small","Bike",121,1.5,1,"MI","North Central","Adrian city, Michigan",-84.0371659,41.8975471
"6","Agawam Town city","Massachusetts","Small","Bike",0,0,0.2,"MA","Northeast","Agawam Town city, Massachusetts",-72.6148117,42.0695391
"7","Agoura Hills city","California","Small","Bike",84,0.8,1.1,"CA","West","Agoura Hills city, California",-118.7616764,34.1533395
"8","Aiken city","South Carolina","Small","Bike",23,0.2,0.3,"SC","South","Aiken city, South Carolina",-81.7195533,33.5604168
"9","Alabaster city","Alabama","Small","Bike",0,0,0.2,"AL","South","Alabaster city, Alabama",-86.8163773,33.2442813
"10","Alameda city","California","Small","Bike",576,1.5,0.4,"CA","West","Alameda city, California",-122.2821855,37.7798721
"11","Alamogordo city","New Mexico","Small","Bike",35,0.3,0.2,"NM","West","Alamogordo city, New Mexico",-105.960265,32.8995325
"12","Albany city","Georgia","Small","Bike",77,0.3,0.2,"GA","South","Albany city, Georgia",-84.155741,31.5785074
"13","Albany city","New York","Small","Bike",419,0.9,0.3,"NY","Northeast","Albany city, New York",-73.7562317,42.6525793
"14","Albany city","Oregon","Small","Bike",281,1.3,0.6,"OR","West","Albany city, Oregon",-123.1059282,44.6365107
"15","Albertville city","Alabama","Small","Bike",2,0,0.1,"AL","South","Albertville city, Alabama",-86.2088669,34.2675937
"16","Alexandria city","Louisiana","Small","Bike",100,0.5,0.3,"LA","South","Alexandria city, Louisiana",-92.4451371,31.3112936
"17","Algonquin village","Illinois","Small","Bike",109,0.7,0.6,"IL","North Central","Algonquin village, Illinois",-88.2942493,42.1655801
"18","Alhambra city","California","Small","Bike",198,0.5,0.2,"CA","West","Alhambra city, California",-118.1270146,34.095287
"19","Aliso Viejo city","California","Small","Bike",85,0.3,0.2,"CA","West","Aliso Viejo city, California",-117.7262981,33.5684605
"20","Allen city","Texas","Small","Bike",21,0,0.1,"TX","South","Allen city, Texas",-96.6705503,33.1031744
"21","Allen Park city","Michigan","Small","Bike",55,0.5,0.4,"MI","North Central","Allen Park city, Michigan",-83.2110375,42.2575385
"22","Alliance city","Ohio","Small","Bike",19,0.2,0.2,"OH","North Central","Alliance city, Ohio",-81.1059309,40.9153362
"23","Alpharetta city","Georgia","Small","Bike",0,0,0.1,"GA","South","Alpharetta city, Georgia",-84.2940899,34.0753762
"24","Altamonte Springs city","Florida","Small","Bike",282,1.3,0.7,"FL","South","Altamonte Springs city, Florida",-81.3656242,28.6611089
"25","Alton city","Illinois","Small","Bike",10,0.1,0.1,"IL","North Central","Alton city, Illinois",-90.1842764,38.8906038
"26","Altoona city","Pennsylvania","Small","Bike",33,0.2,0.2,"PA","Northeast","Altoona city, Pennsylvania",-78.3947359,40.5186809
"27","Alvin city","Texas","Small","Bike",127,1.2,0.7,"TX","South","Alvin city, Texas",-95.2441009,29.4238472
"28","American Fork city","Utah","Small","Bike",32,0.3,0.3,"UT","West","American Fork city, Utah",-111.7957645,40.3768954
"29","Ames city","Iowa","Small","Bike",808,2.5,0.6,"IA","North Central","Ames city, Iowa",-93.6319131,42.0307812
"30","Anderson city","Indiana","Small","Bike",96,0.4,0.2,"IN","North Central","Anderson city, Indiana",-85.6802541,40.1053196
"31","Anderson city","South Carolina","Small","Bike",10,0.1,0.2,"SC","South","Anderson city, South Carolina",-82.6501332,34.5034394
"32","Andover city","Minnesota","Small","Bike",22,0.1,0.2,"MN","North Central","Andover city, Minnesota",-93.2913405,45.2332984
"33","Ankeny city","Iowa","Small","Bike",52,0.2,0.2,"IA","North Central","Ankeny city, Iowa",-93.6001278,41.7317884
"34","Annapolis city","Maryland","Small","Bike",41,0.2,0.2,"MD","South","Annapolis city, Maryland",-76.4921829,38.9784453
"35","Anniston city","Alabama","Small","Bike",12,0.1,0.2,"AL","South","Anniston city, Alabama",-85.8316318,33.6598257
"36","Apache Junction city","Arizona","Small","Bike",71,0.6,0.6,"AZ","West","Apache Junction city, Arizona",-111.5495777,33.4150485
"37","Apex town","North Carolina","Small","Bike",0,0,0.2,"NC","South","Apex town, North Carolina",-78.8502856,35.732652
"38","Apopka city","Florida","Small","Bike",79,0.4,0.4,"FL","South","Apopka city, Florida",-81.5322149,28.6934076
"39","Apple Valley city","Minnesota","Small","Bike",79,0.3,0.2,"MN","North Central","Apple Valley city, Minnesota",-93.21772,44.7319094
"40","Apple Valley town","California","Small","Bike",21,0.1,0.1,"CA","West","Apple Valley town, California",-117.1858759,34.5008311
"41","Appleton city","Wisconsin","Small","Bike",399,1.1,0.4,"WI","North Central","Appleton city, Wisconsin",-88.4153847,44.2619309
"42","Arcadia city","California","Small","Bike",90,0.4,0.2,"CA","West","Arcadia city, California",-118.0353449,34.1397292
"43","Ardmore city","Oklahoma","Small","Bike",19,0.2,0.3,"OK","South","Ardmore city, Oklahoma",-97.1436254,34.1742611
"44","Arlington Heights village","Illinois","Small","Bike",154,0.4,0.2,"IL","North Central","Arlington Heights village, Illinois",-87.9806265,42.0883603
"45","Arnold city","Missouri","Small","Bike",0,0,0.3,"MO","North Central","Arnold city, Missouri",-90.3776187,38.4328317
"46","Arvin city","California","Small","Bike",0,0,0.6,"CA","West","Arvin city, California",-118.833105,35.2017986
"47","Asheboro city","North Carolina","Small","Bike",10,0.1,0.2,"NC","South","Asheboro city, North Carolina",-79.8136446,35.7079146
"48","Asheville city","North Carolina","Small","Bike",428,1.1,0.3,"NC","South","Asheville city, North Carolina",-82.5514869,35.5950581
"49","Ashland city","Kentucky","Small","Bike",0,0,0.4,"KY","South","Ashland city, Kentucky",-82.6379387,38.4784144
"50","Ashland city","Ohio","Small","Bike",49,0.6,0.4,"OH","North Central","Ashland city, Ohio",-82.3182178,40.8686675
"51","Ashland city","Oregon","Small","Bike",560,6.2,1.9,"OR","West","Ashland city, Oregon",-122.7094767,42.1945758
"52","Atascadero city","California","Small","Bike",58,0.4,0.4,"CA","West","Atascadero city, California",-120.6707255,35.4894169
"53","Athens city","Alabama","Small","Bike",0,0,0.4,"AL","South","Athens city, Alabama",-86.9716741,34.8028661
"54","Athens city","Ohio","Small","Bike",208,2.2,0.9,"OH","North Central","Athens city, Ohio",-82.1012554,39.3292396
"55","Atlantic City city","New Jersey","Small","Bike",166,1.1,0.6,"NJ","Northeast","Atlantic City city, New Jersey",-74.4229266,39.3642834
"56","Attleboro city","Massachusetts","Small","Bike",39,0.2,0.2,"MA","Northeast","Attleboro city, Massachusetts",-71.2856082,41.9445441
"57","Atwater city","California","Small","Bike",18,0.2,0.2,"CA","West","Atwater city, California",-120.609084,37.3477174
"58","Auburn city","Alabama","Small","Bike",475,2,0.5,"AL","South","Auburn city, Alabama",-85.4807825,32.6098566
"59","Auburn city","Maine","Small","Bike",57,0.5,0.5,"ME","Northeast","Auburn city, Maine",-70.2311655,44.0978509
"60","Auburn city","New York","Small","Bike",54,0.4,0.4,"NY","Northeast","Auburn city, New York",-76.5660529,42.9317335
"61","Auburn city","Washington","Small","Bike",97,0.3,0.2,"WA","West","Auburn city, Washington",-122.2284532,47.3073228
"62","Auburn Hills city","Michigan","Small","Bike",43,0.4,0.4,"MI","North Central","Auburn Hills city, Michigan",-83.2341028,42.6875323
"63","Austin city","Minnesota","Small","Bike",100,0.9,0.7,"MN","North Central","Austin city, Minnesota",-92.9746367,43.6666296
"64","Aventura city","Florida","Small","Bike",0,0,0.3,"FL","South","Aventura city, Florida",-80.1392121,25.9564812
"65","Avon city","Ohio","Small","Bike",14,0.2,0.2,"OH","North Central","Avon city, Ohio",-82.0354225,41.4517093
"66","Avon Lake city","Ohio","Small","Bike",78,0.7,0.7,"OH","North Central","Avon Lake city, Ohio",-82.0282001,41.5053178
"67","Avondale city","Arizona","Small","Bike",42,0.1,0.1,"AZ","West","Avondale city, Arizona",-112.3496021,33.4355977
"68","Azusa city","California","Small","Bike",154,0.7,0.4,"CA","West","Azusa city, California",-117.9075627,34.1336186
"69","Bainbridge Island city","Washington","Small","Bike",194,1.9,0.9,"WA","West","Bainbridge Island city, Washington",-122.5210007,47.6248791
"70","Balch Springs city","Texas","Small","Bike",0,0,0.4,"TX","South","Balch Springs city, Texas",-96.6227714,32.7287413
"71","Baldwin Park city","California","Small","Bike",294,1,0.5,"CA","West","Baldwin Park city, California",-117.9608978,34.0852868
"72","Ballwin city","Missouri","Small","Bike",0,0,0.2,"MO","North Central","Ballwin city, Missouri",-90.5462339,38.5950532
"73","Bangor city","Maine","Small","Bike",50,0.3,0.3,"ME","Northeast","Bangor city, Maine",-68.7712257,44.8016128
"74","Banning city","California","Small","Bike",47,0.5,0.5,"CA","West","Banning city, California",-116.8764103,33.9255713
"75","Barberton city","Ohio","Small","Bike",8,0.1,0.1,"OH","North Central","Barberton city, Ohio",-81.6051221,41.012833
"76","Barnstable Town city","Massachusetts","Small","Bike",49,0.2,0.2,"MA","Northeast","Barnstable Town city, Massachusetts",-70.3002024,41.7003208
"77","Barstow city","California","Small","Bike",29,0.3,0.5,"CA","West","Barstow city, California",-117.0172826,34.8957957
"78","Bartlesville city","Oklahoma","Small","Bike",115,0.7,0.5,"OK","South","Bartlesville city, Oklahoma",-95.9808179,36.7473114
"79","Bartlett city","Tennessee","Small","Bike",36,0.1,0.2,"TN","South","Bartlett city, Tennessee",-89.8739753,35.2045328
"80","Bartlett village","Illinois","Small","Bike",28,0.1,0.1,"IL","North Central","Bartlett village, Illinois",-88.1856301,41.9950276
"81","Batavia city","Illinois","Small","Bike",47,0.4,0.4,"IL","North Central","Batavia city, Illinois",-88.3125738,41.8500284
"82","Battle Creek city","Michigan","Small","Bike",61,0.3,0.2,"MI","North Central","Battle Creek city, Michigan",-85.1797142,42.3211522
"83","Bay City city","Michigan","Small","Bike",158,1.1,0.6,"MI","North Central","Bay City city, Michigan",-83.8888647,43.5944677
"84","Bayonne city","New Jersey","Small","Bike",71,0.2,0.2,"NJ","Northeast","Bayonne city, New Jersey",-74.1143091,40.6687141
"85","Baytown city","Texas","Small","Bike",83,0.3,0.3,"TX","South","Baytown city, Texas",-94.9774274,29.7355047
"86","Beaumont city","California","Small","Bike",36,0.2,0.2,"CA","West","Beaumont city, California",-116.977248,33.9294606
"87","Beavercreek city","Ohio","Small","Bike",116,0.5,0.3,"OH","North Central","Beavercreek city, Ohio",-84.0632685,39.7092262
"88","Beaverton city","Oregon","Small","Bike",564,1.3,0.4,"OR","West","Beaverton city, Oregon",-122.8013771,45.4888761
"89","Bedford city","Texas","Small","Bike",54,0.2,0.1,"TX","South","Bedford city, Texas",-97.1430671,32.844017
"90","Bell city","California","Small","Bike",234,1.8,0.9,"CA","West","Bell city, California",-118.1870156,33.9775142
"91","Bell Gardens city","California","Small","Bike",173,1.1,0.5,"CA","West","Bell Gardens city, California",-118.1514588,33.9652918
"92","Bella Vista town","Arkansas","Small","Bike",0,0,0.3,"AR","South","Bella Vista town, Arkansas",-94.2732642,36.481464
"93","Belleville city","Illinois","Small","Bike",100,0.5,0.3,"IL","North Central","Belleville city, Illinois",-89.9839935,38.5200504
"94","Bellevue city","Nebraska","Small","Bike",31,0.1,0.1,"NE","North Central","Bellevue city, Nebraska",-95.9145568,41.1543623
"95","Bellflower city","California","Small","Bike",177,0.6,0.3,"CA","West","Bellflower city, California",-118.1170117,33.8816818
"96","Bellingham city","Washington","Small","Bike",1578,4,1,"WA","West","Bellingham city, Washington",-122.4786854,48.7519112
"97","Belmont city","California","Small","Bike",42,0.3,0.3,"CA","West","Belmont city, California",-122.2758008,37.5202145
"98","Beloit city","Wisconsin","Small","Bike",86,0.6,0.4,"WI","North Central","Beloit city, Wisconsin",-89.0317765,42.5083482
"99","Belton city","Missouri","Small","Bike",32,0.3,0.3,"MO","North Central","Belton city, Missouri",-94.5318982,38.8119527
"100","Belvidere city","Illinois","Small","Bike",40,0.4,0.6,"IL","North Central","Belvidere city, Illinois",-88.8442674,42.2639098
"101","Benbrook city","Texas","Small","Bike",42,0.4,0.4,"TX","South","Benbrook city, Texas",-97.4605759,32.673188
"102","Bend city","Oregon","Small","Bike",844,2.3,0.7,"OR","West","Bend city, Oregon",-121.3153096,44.0581728
"103","Benicia city","California","Small","Bike",90,0.7,0.6,"CA","West","Benicia city, California",-122.1585777,38.049365
"104","Benton city","Arkansas","Small","Bike",0,0,0.2,"AR","South","Benton city, Arkansas",-92.586828,34.5645371
"105","Bentonville city","Arkansas","Small","Bike",24,0.1,0.2,"AR","South","Bentonville city, Arkansas",-94.2088172,36.3728538
"106","Bergenfield borough","New Jersey","Small","Bike",39,0.3,0.2,"NJ","Northeast","Bergenfield borough, New Jersey",-73.9973608,40.9275987
"107","Berwyn city","Illinois","Small","Bike",45,0.2,0.2,"IL","North Central","Berwyn city, Illinois",-87.7936685,41.8505874
"108","Bessemer city","Alabama","Small","Bike",0,0,0.3,"AL","South","Bessemer city, Alabama",-86.954437,33.4017766
"109","Bethel Park municipality","Pennsylvania","Small","Bike",7,0,0.1,"PA","Northeast","Bethel Park municipality, Pennsylvania",-80.0394977,40.3275697
"110","Bethlehem city","Pennsylvania","Small","Bike",84,0.3,0.1,"PA","Northeast","Bethlehem city, Pennsylvania",-75.3704579,40.6259316
"111","Bettendorf city","Iowa","Small","Bike",34,0.2,0.2,"IA","North Central","Bettendorf city, Iowa",-90.5072573,41.5262641
"112","Beverly city","Massachusetts","Small","Bike",57,0.3,0.2,"MA","Northeast","Beverly city, Massachusetts",-70.880049,42.5584283
"113","Beverly Hills city","California","Small","Bike",87,0.5,0.5,"CA","West","Beverly Hills city, California",-118.4003563,34.0736204
"114","Biddeford city","Maine","Small","Bike",88,0.8,0.6,"ME","Northeast","Biddeford city, Maine",-70.4533844,43.4925843
"115","Big Spring city","Texas","Small","Bike",33,0.4,0.4,"TX","South","Big Spring city, Texas",-101.4787355,32.2503979
"116","Biloxi city","Mississippi","Small","Bike",88,0.4,0.3,"MS","South","Biloxi city, Mississippi",-88.8853078,30.3960318
"117","Binghamton city","New York","Small","Bike",208,1.1,0.6,"NY","Northeast","Binghamton city, New York",-75.9179738,42.0986867
"118","Birmingham city","Michigan","Small","Bike",21,0.2,0.3,"MI","North Central","Birmingham city, Michigan",-83.2113192,42.5467012
"119","Bismarck city","North Dakota","Small","Bike",271,0.8,0.3,"ND","North Central","Bismarck city, North Dakota",-100.7837392,46.8083268
"120","Bixby city","Oklahoma","Small","Bike",22,0.2,0.3,"OK","South","Bixby city, Oklahoma",-95.8833235,35.9420431
"121","Blacksburg town","Virginia","Small","Bike",531,3.1,1,"VA","South","Blacksburg town, Virginia",-80.4139393,37.2295733
"122","Blaine city","Minnesota","Small","Bike",30,0.1,0.1,"MN","North Central","Blaine city, Minnesota",-93.2349489,45.1607987
"123","Bloomingdale village","Illinois","Small","Bike",0,0,0.3,"IL","North Central","Bloomingdale village, Illinois",-88.0809036,41.9575285
"124","Bloomington city","Illinois","Small","Bike",205,0.5,0.2,"IL","North Central","Bloomington city, Illinois",-88.9892448,40.4166674
"125","Bloomington city","Indiana","Small","Bike",1260,3.6,0.7,"IN","North Central","Bloomington city, Indiana",-86.5263857,39.165325
"126","Bloomington city","Minnesota","Small","Bike",239,0.6,0.2,"MN","North Central","Bloomington city, Minnesota",-93.2982799,44.840798
"127","Blue Island city","Illinois","Small","Bike",12,0.1,0.2,"IL","North Central","Blue Island city, Illinois",-87.6800486,41.6572562
"128","Blue Springs city","Missouri","Small","Bike",52,0.2,0.3,"MO","North Central","Blue Springs city, Missouri",-94.2816148,39.0169509
"129","Blythe city","California","Small","Bike",12,0.2,0.3,"CA","West","Blythe city, California",-114.5882607,33.6177725
"130","Boca Raton city","Florida","Small","Bike",438,1.1,0.5,"FL","South","Boca Raton city, Florida",-80.1289321,26.3683064
"131","Bolingbrook village","Illinois","Small","Bike",27,0.1,0.1,"IL","North Central","Bolingbrook village, Illinois",-88.0683955,41.6986416
"132","Bonita Springs city","Florida","Small","Bike",150,0.9,0.6,"FL","South","Bonita Springs city, Florida",-81.7786972,26.339806
"133","Bossier City city","Louisiana","Small","Bike",101,0.3,0.2,"LA","South","Bossier City city, Louisiana",-93.7321228,32.5159852
"134","Bothell city","Washington","Small","Bike",204,1.2,0.7,"WA","West","Bothell city, Washington",-122.2054452,47.760111
"135","Bountiful city","Utah","Small","Bike",44,0.2,0.2,"UT","West","Bountiful city, Utah",-111.880771,40.8893895
"136","Bowie city","Maryland","Small","Bike",25,0.1,0.1,"MD","South","Bowie city, Maryland",-76.7791365,39.0067768
"137","Bowling Green city","Kentucky","Small","Bike",127,0.5,0.3,"KY","South","Bowling Green city, Kentucky",-86.4808043,36.9685219
"138","Bowling Green city","Ohio","Small","Bike",226,1.5,0.7,"OH","North Central","Bowling Green city, Ohio",-83.6513229,41.3747744
"139","Boynton Beach city","Florida","Small","Bike",187,0.6,0.3,"FL","South","Boynton Beach city, Florida",-80.0905465,26.5317866
"140","Bozeman city","Montana","Small","Bike",1185,5.8,1.2,"MT","West","Bozeman city, Montana",-111.0429339,45.6769979
"141","Bradenton city","Florida","Small","Bike",151,0.7,0.5,"FL","South","Bradenton city, Florida",-82.5748194,27.4989278
"142","Braintree Town city","Massachusetts","Small","Bike",29,0.2,0.2,"MA","Northeast","Braintree Town city, Massachusetts",-71.0040013,42.2079017
"143","Brandon city","Mississippi","Small","Bike",10,0.1,0.1,"MS","South","Brandon city, Mississippi",-90.001384,32.2788733
"144","Brawley city","California","Small","Bike",22,0.3,0.4,"CA","West","Brawley city, California",-115.530267,32.9786566
"145","Brea city","California","Small","Bike",73,0.4,0.3,"CA","West","Brea city, California",-117.9002918,33.916475
"146","Bremerton city","Washington","Small","Bike",221,1.2,0.6,"WA","West","Bremerton city, Washington",-122.6269768,47.5650067
"147","Brentwood city","California","Small","Bike",11,0.1,0.1,"CA","West","Brentwood city, California",-121.6957863,37.931868
"148","Brentwood city","Tennessee","Small","Bike",10,0.1,0.1,"TN","South","Brentwood city, Tennessee",-86.7827772,36.0331164
"149","Bridgeton city","New Jersey","Small","Bike",3,0,0.1,"NJ","Northeast","Bridgeton city, New Jersey",-75.2340768,39.427337
"150","Brighton city","Colorado","Small","Bike",34,0.2,0.2,"CO","West","Brighton city, Colorado",-104.8205283,39.9852617
"151","Bristol city","Connecticut","Small","Bike",36,0.1,0.1,"CT","Northeast","Bristol city, Connecticut",-72.9492703,41.6717648
"152","Bristol city","Tennessee","Small","Bike",15,0.1,0.2,"TN","South","Bristol city, Tennessee",-82.1887444,36.5951059
"153","Brockton city","Massachusetts","Small","Bike",98,0.2,0.2,"MA","Northeast","Brockton city, Massachusetts",-71.0183787,42.0834335
"154","Brookfield city","Wisconsin","Small","Bike",33,0.2,0.2,"WI","North Central","Brookfield city, Wisconsin",-88.1064787,43.0605671
"155","Brookings city","South Dakota","Small","Bike",454,3.7,1.7,"SD","North Central","Brookings city, South Dakota",-96.7983877,44.3113573
"156","Brooklyn Center city","Minnesota","Small","Bike",147,1.1,0.7,"MN","North Central","Brooklyn Center city, Minnesota",-93.3327283,45.076076
"157","Brooklyn Park city","Minnesota","Small","Bike",53,0.1,0.1,"MN","North Central","Brooklyn Park city, Minnesota",-93.3563405,45.0941315
"158","Broomfield city","Colorado","Small","Bike",218,0.7,0.4,"CO","West","Broomfield city, Colorado",-105.0866504,39.9205411
"159","Brownsburg town","Indiana","Small","Bike",0,0,0.3,"IN","North Central","Brownsburg town, Indiana",-86.3977735,39.8433769
"160","Brunswick city","Ohio","Small","Bike",12,0.1,0.1,"OH","North Central","Brunswick city, Ohio",-81.8418006,41.2381096
"161","Bryan city","Texas","Small","Bike",454,1.3,0.6,"TX","South","Bryan city, Texas",-96.3699632,30.6743643
"162","Buckeye town","Arizona","Small","Bike",27,0.1,0.2,"AZ","West","Buckeye town, Arizona",-112.5837766,33.3703197
"163","Buena Park city","California","Small","Bike",453,1.3,0.7,"CA","West","Buena Park city, California",-117.9981387,33.8674044
"164","Buffalo Grove village","Illinois","Small","Bike",114,0.5,0.3,"IL","North Central","Buffalo Grove village, Illinois",-87.9631308,42.1662831
"165","Bullhead City city","Arizona","Small","Bike",0,0,0.3,"AZ","West","Bullhead City city, Arizona",-114.5285981,35.1359386
"166","Burbank city","Illinois","Small","Bike",59,0.5,0.4,"IL","North Central","Burbank city, Illinois",-87.760738,41.7467619
"167","Burien city","Washington","Small","Bike",51,0.3,0.2,"WA","West","Burien city, Washington",-122.3405305,47.4668384
"168","Burleson city","Texas","Small","Bike",73,0.4,0.4,"TX","South","Burleson city, Texas",-97.3208492,32.5420821
"169","Burlingame city","California","Small","Bike",126,0.9,0.6,"CA","West","Burlingame city, California",-122.34809,37.5778696
"170","Burlington city","Iowa","Small","Bike",98,0.9,0.9,"IA","North Central","Burlington city, Iowa",-91.1128901,40.8076529
"171","Burlington city","North Carolina","Small","Bike",0,0,0.2,"NC","South","Burlington city, North Carolina",-79.4377991,36.0956918
"172","Burlington city","Vermont","Small","Bike",1101,5,1.2,"VT","Northeast","Burlington city, Vermont",-73.212072,44.4758825
"173","Burnsville city","Minnesota","Small","Bike",127,0.4,0.3,"MN","North Central","Burnsville city, Minnesota",-93.2777226,44.7677424
"174","Burton city","Michigan","Small","Bike",14,0.1,0.2,"MI","North Central","Burton city, Michigan",-83.6163423,42.9994718
"175","Butte-Silver Bow (balance)","Montana","Small","Bike",42,0.3,0.4,"MT","West","Butte-Silver Bow (balance), Montana",-112.5347775,46.0038232
"176","Cabot city","Arkansas","Small","Bike",0,0,0.3,"AR","South","Cabot city, Arkansas",-92.0165336,34.974532
"177","Calabasas city","California","Small","Bike",0,0,0.4,"CA","West","Calabasas city, California",-118.6614809,34.1367208
"178","Caldwell city","Idaho","Small","Bike",52,0.3,0.3,"ID","West","Caldwell city, Idaho",-116.6873596,43.6629384
"179","Caledonia village","Wisconsin","Small","Bike",26,0.2,0.2,"WI","North Central","Caledonia village, Wisconsin",-87.924248,42.8077958
"180","Calexico city","California","Small","Bike",60,0.5,0.6,"CA","West","Calexico city, California",-115.4988834,32.6789476
"181","Calumet City city","Illinois","Small","Bike",74,0.5,0.6,"IL","North Central","Calumet City city, Illinois",-87.5294871,41.6155909
"182","Camarillo city","California","Small","Bike",156,0.5,0.3,"CA","West","Camarillo city, California",-119.0376023,34.2163937
"183","Camas city","Washington","Small","Bike",64,0.8,0.5,"WA","West","Camas city, Washington",-122.402442,45.5867128
"184","Camden city","New Jersey","Small","Bike",84,0.4,0.4,"NJ","Northeast","Camden city, New Jersey",-75.1196199,39.9259463
"185","Campbell city","California","Small","Bike",432,2,1,"CA","West","Campbell city, California",-121.9499568,37.2871651
"186","Canton city","Georgia","Small","Bike",0,0,0.4,"GA","South","Canton city, Georgia",-84.4907621,34.2367621
"187","Canton city","Ohio","Small","Bike",58,0.2,0.1,"OH","North Central","Canton city, Ohio",-81.378447,40.7989473
"188","Cape Girardeau city","Missouri","Small","Bike",128,0.7,0.8,"MO","North Central","Cape Girardeau city, Missouri",-89.5181476,37.3058839
"189","Carbondale city","Illinois","Small","Bike",381,3.6,1.2,"IL","North Central","Carbondale city, Illinois",-89.2167501,37.7272727
"190","Carlsbad city","New Mexico","Small","Bike",0,0,0.3,"NM","West","Carlsbad city, New Mexico",-104.2288375,32.4206736
"191","Carmel city","Indiana","Small","Bike",137,0.3,0.2,"IN","North Central","Carmel city, Indiana",-86.1180435,39.978371
"192","Carol Stream village","Illinois","Small","Bike",66,0.3,0.4,"IL","North Central","Carol Stream village, Illinois",-88.1347927,41.9125286
"193","Carpentersville village","Illinois","Small","Bike",7,0,0.1,"IL","North Central","Carpentersville village, Illinois",-88.2578582,42.1211364
"194","Carrboro town","North Carolina","Small","Bike",605,5.3,2.1,"NC","South","Carrboro town, North Carolina",-79.0752895,35.9101438
"195","Carrollton city","Georgia","Small","Bike",43,0.5,0.4,"GA","South","Carrollton city, Georgia",-85.0766113,33.5801103
"196","Carson city","California","Small","Bike",85,0.2,0.2,"CA","West","Carson city, California",-118.281693,33.8316745
"197","Carson City","Nevada","Small","Bike",261,1.1,0.6,"NV","West","Carson City, Nevada",-119.7674034,39.1637984
"198","Carteret borough","New Jersey","Small","Bike",61,0.6,0.6,"NJ","Northeast","Carteret borough, New Jersey",-74.223802,40.5860862
"199","Casa Grande city","Arizona","Small","Bike",48,0.3,0.2,"AZ","West","Casa Grande city, Arizona",-111.7733902,32.9110027
"200","Casper city","Wyoming","Small","Bike",195,0.7,0.3,"WY","West","Casper city, Wyoming",-106.3251749,42.8500769
"201","Casselberry city","Florida","Small","Bike",72,0.6,0.5,"FL","South","Casselberry city, Florida",-81.3278455,28.677775
"202","Castle Rock town","Colorado","Small","Bike",18,0.1,0.1,"CO","West","Castle Rock town, Colorado",-104.8560902,39.3722121
"203","Cathedral City city","California","Small","Bike",50,0.2,0.2,"CA","West","Cathedral City city, California",-116.4668036,33.7805388
"204","Cedar City city","Utah","Small","Bike",117,1,0.5,"UT","West","Cedar City city, Utah",-113.0618931,37.6774769
"205","Cedar Falls city","Iowa","Small","Bike",146,0.7,0.4,"IA","North Central","Cedar Falls city, Iowa",-92.4453161,42.5348993
"206","Cedar Hill city","Texas","Small","Bike",19,0.1,0.1,"TX","South","Cedar Hill city, Texas",-96.9561152,32.5884689
"207","Cedar Park city","Texas","Small","Bike",42,0.2,0.2,"TX","South","Cedar Park city, Texas",-97.8202888,30.505198
"208","Centerville city","Ohio","Small","Bike",3,0,4.1,"OH","North Central","Centerville city, Ohio",-84.1593818,39.6283928
"209","Central city","Louisiana","Small","Bike",0,0,0.3,"LA","South","Central city, Louisiana",-91.0368766,30.554281
"210","Ceres city","California","Small","Bike",78,0.5,0.6,"CA","West","Ceres city, California",-120.9577098,37.5949316
"211","Cerritos city","California","Small","Bike",35,0.2,0.2,"CA","West","Cerritos city, California",-118.0647871,33.8583483
"212","Chambersburg borough","Pennsylvania","Small","Bike",28,0.3,0.4,"PA","Northeast","Chambersburg borough, Pennsylvania",-77.6611022,39.9375911
"213","Champaign city","Illinois","Small","Bike",1075,2.7,0.6,"IL","North Central","Champaign city, Illinois",-88.2753144,40.1017582
"214","Champlin city","Minnesota","Small","Bike",52,0.4,0.3,"MN","North Central","Champlin city, Minnesota",-93.3974537,45.1888539
"215","Chanhassen city","Minnesota","Small","Bike",35,0.3,0.4,"MN","North Central","Chanhassen city, Minnesota",-93.5323103,44.8619645
"216","Chapel Hill town","North Carolina","Small","Bike",583,2.2,0.5,"NC","South","Chapel Hill town, North Carolina",-79.0558445,35.9131996
"217","Charleston city","Illinois","Small","Bike",110,1.1,0.7,"IL","North Central","Charleston city, Illinois",-88.1761521,39.4961458
"218","Charleston city","West Virginia","Small","Bike",49,0.2,0.1,"WV","South","Charleston city, West Virginia",-81.6326234,38.3498195
"219","Charlottesville city","Virginia","Small","Bike",753,3.7,0.9,"VA","South","Charlottesville city, Virginia",-78.4766781,38.0293059
"220","Chaska city","Minnesota","Small","Bike",24,0.2,0.2,"MN","North Central","Chaska city, Minnesota",-93.6018389,44.7893446
"221","Chelsea city","Massachusetts","Small","Bike",136,0.8,0.6,"MA","Northeast","Chelsea city, Massachusetts",-71.0328284,42.3917638
"222","Chester city","Pennsylvania","Small","Bike",104,0.9,0.8,"PA","Northeast","Chester city, Pennsylvania",-75.3557457,39.849557
"223","Chesterfield city","Missouri","Small","Bike",14,0.1,0.1,"MO","North Central","Chesterfield city, Missouri",-90.5770675,38.6631083
"224","Cheyenne city","Wyoming","Small","Bike",207,0.7,0.3,"WY","West","Cheyenne city, Wyoming",-104.8202462,41.1399814
"225","Chicago Heights city","Illinois","Small","Bike",99,0.9,0.8,"IL","North Central","Chicago Heights city, Illinois",-87.6355995,41.506146
"226","Chico city","California","Small","Bike",2239,5.8,1,"CA","West","Chico city, California",-121.8374777,39.7284944
"227","Chicopee city","Massachusetts","Small","Bike",129,0.5,0.6,"MA","Northeast","Chicopee city, Massachusetts",-72.6078672,42.1487043
"228","Chillicothe city","Ohio","Small","Bike",14,0.2,0.2,"OH","North Central","Chillicothe city, Ohio",-82.9824019,39.3331197
"229","Chino city","California","Small","Bike",97,0.3,0.2,"CA","West","Chino city, California",-117.688944,34.0122346
"230","Chino Hills city","California","Small","Bike",206,0.6,0.7,"CA","West","Chino Hills city, California",-117.7325848,33.9898188
"231","Christiansburg town","Virginia","Small","Bike",0,0,0.3,"VA","South","Christiansburg town, Virginia",-80.4089389,37.1298517
"232","Cicero town","Illinois","Small","Bike",312,0.9,0.5,"IL","North Central","Cicero town, Illinois",-87.7539448,41.8455877
"233","Citrus Heights city","California","Small","Bike",137,0.4,0.2,"CA","West","Citrus Heights city, California",-121.2810611,38.7071247
"234","Claremont city","California","Small","Bike",296,2,0.7,"CA","West","Claremont city, California",-117.7197785,34.0966764
"235","Clarksville town","Indiana","Small","Bike",27,0.3,0.3,"IN","North Central","Clarksville town, Indiana",-85.759963,38.2967362
"236","Clearfield city","Utah","Small","Bike",39,0.3,0.3,"UT","West","Clearfield city, Utah",-112.0260538,41.1107771
"237","Cleburne city","Texas","Small","Bike",0,0,0.3,"TX","South","Cleburne city, Texas",-97.3866837,32.3476438
"238","Clermont city","Florida","Small","Bike",18,0.2,0.2,"FL","South","Clermont city, Florida",-81.7728543,28.5494447
"239","Cleveland city","Tennessee","Small","Bike",51,0.3,0.3,"TN","South","Cleveland city, Tennessee",-84.8766115,35.1595182
"240","Cleveland Heights city","Ohio","Small","Bike",197,0.9,0.3,"OH","North Central","Cleveland Heights city, Ohio",-81.556235,41.5200518
"241","Cliffside Park borough","New Jersey","Small","Bike",39,0.3,0.3,"NJ","Northeast","Cliffside Park borough, New Jersey",-73.9876388,40.8214894
"242","Clifton city","New Jersey","Small","Bike",59,0.1,0.2,"NJ","Northeast","Clifton city, New Jersey",-74.1637553,40.8584328
"243","Clinton city","Iowa","Small","Bike",58,0.5,0.4,"IA","North Central","Clinton city, Iowa",-90.1887379,41.8444735
"244","Clinton city","Mississippi","Small","Bike",0,0,0.3,"MS","South","Clinton city, Mississippi",-90.3217585,32.3415342
"245","Clinton city","Utah","Small","Bike",13,0.1,0.2,"UT","West","Clinton city, Utah",-112.0504983,41.139666
"246","Clovis city","California","Small","Bike",156,0.4,0.2,"CA","West","Clovis city, California",-119.7029194,36.8252277
"247","Clovis city","New Mexico","Small","Bike",58,0.4,0.3,"NM","West","Clovis city, New Mexico",-103.2052272,34.4047987
"248","Coachella city","California","Small","Bike",15,0.1,0.2,"CA","West","Coachella city, California",-116.173894,33.6803003
"249","Coconut Creek city","Florida","Small","Bike",110,0.4,0.3,"FL","South","Coconut Creek city, Florida",-80.1789351,26.2517482
"250","Coeur d'Alene city","Idaho","Small","Bike",191,0.9,0.5,"ID","West","Coeur d'Alene city, Idaho",-116.7812225,47.6734632
"251","College Park city","Maryland","Small","Bike",433,3.3,1.2,"MD","South","College Park city, Maryland",-76.93776,38.9896967
"252","College Station city","Texas","Small","Bike",1126,2.6,0.5,"TX","South","College Station city, Texas",-96.3344068,30.627977
"253","Colleyville city","Texas","Small","Bike",25,0.2,0.3,"TX","South","Colleyville city, Texas",-97.155012,32.8809603
"254","Collierville town","Tennessee","Small","Bike",5,0,0.1,"TN","South","Collierville town, Tennessee",-89.6645266,35.042036
"255","Collinsville city","Illinois","Small","Bike",31,0.3,0.3,"IL","North Central","Collinsville city, Illinois",-89.9845476,38.6703266
"256","Colton city","California","Small","Bike",133,0.6,0.6,"CA","West","Colton city, California",-117.3136547,34.0739016
"257","Columbia city","Tennessee","Small","Bike",54,0.4,0.5,"TN","South","Columbia city, Tennessee",-87.0352831,35.6150716
"258","Columbus city","Indiana","Small","Bike",99,0.5,0.2,"IN","North Central","Columbus city, Indiana",-85.9213796,39.2014404
"259","Columbus city","Mississippi","Small","Bike",5,0.1,0.1,"MS","South","Columbus city, Mississippi",-88.4272627,33.4956744
"260","Columbus city","Nebraska","Small","Bike",52,0.5,0.5,"NE","North Central","Columbus city, Nebraska",-97.3593904,41.4302973
"261","Commerce City city","Colorado","Small","Bike",10,0,0.1,"CO","West","Commerce City city, Colorado",-104.9338675,39.8083196
"262","Compton city","California","Small","Bike",154,0.5,0.2,"CA","West","Compton city, California",-118.2200712,33.8958492
"263","Concord city","New Hampshire","Small","Bike",93,0.4,0.3,"NH","Northeast","Concord city, New Hampshire",-71.5375718,43.2081366
"264","Concord city","North Carolina","Small","Bike",34,0.1,0.1,"NC","South","Concord city, North Carolina",-80.579511,35.4087517
"265","Conroe city","Texas","Small","Bike",126,0.5,0.5,"TX","South","Conroe city, Texas",-95.4560512,30.3118769
"266","Conway city","Arkansas","Small","Bike",104,0.4,0.2,"AR","South","Conway city, Arkansas",-92.4421011,35.0886963
"267","Cookeville city","Tennessee","Small","Bike",34,0.3,0.3,"TN","South","Cookeville city, Tennessee",-85.5016423,36.162839
"268","Coon Rapids city","Minnesota","Small","Bike",101,0.3,0.2,"MN","North Central","Coon Rapids city, Minnesota",-93.3030063,45.1732394
"269","Cooper City city","Florida","Small","Bike",16,0.1,0.1,"FL","South","Cooper City city, Florida",-80.271716,26.0573112
"270","Coppell city","Texas","Small","Bike",9,0,0.1,"TX","South","Coppell city, Texas",-97.0150078,32.9545687
"271","Copperas Cove city","Texas","Small","Bike",25,0.2,0.2,"TX","South","Copperas Cove city, Texas",-97.9030785,31.124062
"272","Coral Gables city","Florida","Small","Bike",144,0.7,0.5,"FL","South","Coral Gables city, Florida",-80.2635411,25.7491968
"273","Corcoran city","California","Small","Bike",52,1.3,1.1,"CA","West","Corcoran city, California",-119.5604015,36.098007
"274","Corinth city","Texas","Small","Bike",23,0.2,0.4,"TX","South","Corinth city, Texas",-97.0647322,33.1540091
"275","Cornelius town","North Carolina","Small","Bike",7,0.1,0.1,"NC","South","Cornelius town, North Carolina",-80.8600736,35.4868032
"276","Coronado city","California","Small","Bike",527,4.8,1.3,"CA","West","Coronado city, California",-117.1830891,32.6858853
"277","Corsicana city","Texas","Small","Bike",31,0.3,0.4,"TX","South","Corsicana city, Texas",-96.4688727,32.0954304
"278","Corvallis city","Oregon","Small","Bike",2804,11.2,1.5,"OR","West","Corvallis city, Oregon",-123.2620435,44.5645659
"279","Cottage Grove city","Minnesota","Small","Bike",64,0.4,0.3,"MN","North Central","Cottage Grove city, Minnesota",-92.9438218,44.8277446
"280","Cottonwood Heights city","Utah","Small","Bike",49,0.3,0.2,"UT","West","Cottonwood Heights city, Utah",-111.8162931,40.6183158
"281","Council Bluffs city","Iowa","Small","Bike",132,0.4,0.2,"IA","North Central","Council Bluffs city, Iowa",-95.8608333,41.2619444
"282","Covina city","California","Small","Bike",134,0.6,0.4,"CA","West","Covina city, California",-117.8903397,34.0900091
"283","Covington city","Kentucky","Small","Bike",50,0.3,0.3,"KY","South","Covington city, Kentucky",-84.5085536,39.0836712
"284","Cranston city","Rhode Island","Small","Bike",92,0.3,0.2,"RI","Northeast","Cranston city, Rhode Island",-71.4372796,41.7798226
"285","Crest Hill city","Illinois","Small","Bike",0,0,0.3,"IL","North Central","Crest Hill city, Illinois",-88.0986709,41.554753
"286","Crestview city","Florida","Small","Bike",11,0.1,0.2,"FL","South","Crestview city, Florida",-86.5727995,30.7541808
"287","Crown Point city","Indiana","Small","Bike",0,0,0.2,"IN","North Central","Crown Point city, Indiana",-87.3653135,41.4169806
"288","Crystal city","Minnesota","Small","Bike",9,0.1,0.1,"MN","North Central","Crystal city, Minnesota",-93.3602286,45.0327425
"289","Crystal Lake city","Illinois","Small","Bike",0,0,0.1,"IL","North Central","Crystal Lake city, Illinois",-88.3161965,42.2411344
"290","Cudahy city","California","Small","Bike",74,0.8,0.8,"CA","West","Cudahy city, California",-118.1857858,33.9608646
"291","Culver City city","California","Small","Bike",219,1.1,0.5,"CA","West","Culver City city, California",-118.3964665,34.0211224
"292","Cumberland city","Maryland","Small","Bike",0,0,0.4,"MD","South","Cumberland city, Maryland",-78.7625185,39.6528654
"293","Cupertino city","California","Small","Bike",221,0.9,0.5,"CA","West","Cupertino city, California",-122.0321823,37.3229978
"294","Cutler Bay town","Florida","Small","Bike",28,0.2,0.2,"FL","South","Cutler Bay town, Florida",-80.3468593,25.5808323
"295","Cuyahoga Falls city","Ohio","Small","Bike",56,0.2,0.3,"OH","North Central","Cuyahoga Falls city, Ohio",-81.4845585,41.1339449
"296","Cypress city","California","Small","Bike",168,0.7,0.4,"CA","West","Cypress city, California",-118.0368507,33.8169366
"297","Dalton city","Georgia","Small","Bike",29,0.2,0.3,"GA","South","Dalton city, Georgia",-84.9702228,34.7698021
"298","Dana Point city","California","Small","Bike",75,0.4,0.3,"CA","West","Dana Point city, California",-117.6981014,33.4672256
"299","Danbury city","Connecticut","Small","Bike",51,0.1,0.1,"CT","Northeast","Danbury city, Connecticut",-73.4540111,41.394817
"300","Dania Beach city","Florida","Small","Bike",102,0.7,0.5,"FL","South","Dania Beach city, Florida",-80.1439343,26.052311
"301","Danville city","Illinois","Small","Bike",28,0.2,0.2,"IL","North Central","Danville city, Illinois",-87.6300207,40.124481
"302","Danville city","Virginia","Small","Bike",33,0.2,0.1,"VA","South","Danville city, Virginia",-79.3950228,36.5859718
"303","Danville town","California","Small","Bike",29,0.2,0.2,"CA","West","Danville town, California",-121.9999606,37.8215929
"304","Daphne city","Alabama","Small","Bike",91,0.9,1.3,"AL","South","Daphne city, Alabama",-87.9036047,30.6035255
"305","Darien city","Illinois","Small","Bike",30,0.3,0.3,"IL","North Central","Darien city, Illinois",-87.9737943,41.7483483
"306","Davie town","Florida","Small","Bike",216,0.5,0.3,"FL","South","Davie town, Florida",-80.2521157,26.0764783
"307","Davis city","California","Small","Bike",5691,18.6,1.8,"CA","West","Davis city, California",-121.7405167,38.5449065
"308","Daytona Beach city","Florida","Small","Bike",429,1.9,0.7,"FL","South","Daytona Beach city, Florida",-81.0228331,29.2108147
"309","De Pere city","Wisconsin","Small","Bike",75,0.6,0.4,"WI","North Central","De Pere city, Wisconsin",-88.0603806,44.4488805
"310","Dearborn city","Michigan","Small","Bike",110,0.3,0.1,"MI","North Central","Dearborn city, Michigan",-83.1763145,42.3222599
"311","Dearborn Heights city","Michigan","Small","Bike",32,0.2,0.2,"MI","North Central","Dearborn Heights city, Michigan",-83.2732627,42.3369816
"312","Decatur city","Alabama","Small","Bike",0,0,0.1,"AL","South","Decatur city, Alabama",-86.9833417,34.6059253
"313","Decatur city","Illinois","Small","Bike",54,0.2,0.1,"IL","North Central","Decatur city, Illinois",-88.9548001,39.8403147
"314","Deer Park city","Texas","Small","Bike",65,0.4,0.5,"TX","South","Deer Park city, Texas",-95.1238204,29.7052284
"315","Deerfield Beach city","Florida","Small","Bike",306,0.9,0.4,"FL","South","Deerfield Beach city, Florida",-80.0997657,26.3184123
"316","DeKalb city","Illinois","Small","Bike",301,1.5,0.6,"IL","North Central","DeKalb city, Illinois",-88.7503647,41.9294736
"317","Del City city","Oklahoma","Small","Bike",0,0,0.3,"OK","South","Del City city, Oklahoma",-97.4408698,35.4420062
"318","Del Rio city","Texas","Small","Bike",125,0.9,0.5,"TX","South","Del Rio city, Texas",-100.8958674,29.3708857
"319","DeLand city","Florida","Small","Bike",159,1.6,1.2,"FL","South","DeLand city, Florida",-81.3031179,29.028318
"320","Delano city","California","Small","Bike",41,0.3,0.4,"CA","West","Delano city, California",-119.2470536,35.7688425
"321","Delaware city","Ohio","Small","Bike",46,0.3,0.2,"OH","North Central","Delaware city, Ohio",-83.0522468,40.2788666
"322","Delray Beach city","Florida","Small","Bike",188,0.7,0.4,"FL","South","Delray Beach city, Florida",-80.0728201,26.4614625
"323","Deltona city","Florida","Small","Bike",58,0.2,0.2,"FL","South","Deltona city, Florida",-81.2636738,28.9005446
"324","Denison city","Texas","Small","Bike",34,0.4,0.4,"TX","South","Denison city, Texas",-96.536658,33.7556593
"325","Derby city","Kansas","Small","Bike",9,0.1,0.1,"KS","North Central","Derby city, Kansas",-97.2689331,37.5455735
"326","Des Moines city","Washington","Small","Bike",24,0.2,0.3,"WA","West","Des Moines city, Washington",-122.3242901,47.4017661
"327","Des Plaines city","Illinois","Small","Bike",167,0.6,0.3,"IL","North Central","Des Plaines city, Illinois",-87.8833991,42.0333623
"328","Desert Hot Springs city","California","Small","Bike",0,0,0.4,"CA","West","Desert Hot Springs city, California",-116.5016784,33.961124
"329","DeSoto city","Texas","Small","Bike",0,0,0.2,"TX","South","DeSoto city, Texas",-96.8570738,32.5896998
"330","Diamond Bar city","California","Small","Bike",7,0,0.1,"CA","West","Diamond Bar city, California",-117.8103367,34.0286226
"331","Dinuba city","California","Small","Bike",14,0.2,0.3,"CA","West","Dinuba city, California",-119.3870656,36.5432837
"332","Dodge City city","Kansas","Small","Bike",42,0.3,0.3,"KS","North Central","Dodge City city, Kansas",-100.0170787,37.7527982
"333","Dolton village","Illinois","Small","Bike",0,0,0.3,"IL","North Central","Dolton village, Illinois",-87.607268,41.6389236
"334","Doral city","Florida","Small","Bike",5,0,0.1,"FL","South","Doral city, Florida",-80.3553302,25.8195424
"335","Dothan city","Alabama","Small","Bike",51,0.2,0.1,"AL","South","Dothan city, Alabama",-85.3904888,31.2232313
"336","Douglasville city","Georgia","Small","Bike",1,0,0.1,"GA","South","Douglasville city, Georgia",-84.7477136,33.7514966
"337","Dover city","Delaware","Small","Bike",12,0.1,0.1,"DE","South","Dover city, Delaware",-75.5243682,39.158168
"338","Dover city","New Hampshire","Small","Bike",43,0.3,0.3,"NH","Northeast","Dover city, New Hampshire",-70.8736698,43.1978624
"339","Downers Grove village","Illinois","Small","Bike",176,0.7,0.4,"IL","North Central","Downers Grove village, Illinois",-88.0111746,41.8089191
"340","Draper city","Utah","Small","Bike",35,0.2,0.2,"UT","West","Draper city, Utah",-111.8638226,40.5246711
"341","Duarte city","California","Small","Bike",14,0.2,0.2,"CA","West","Duarte city, California",-117.9772873,34.1394513
"342","Dublin city","California","Small","Bike",69,0.3,0.2,"CA","West","Dublin city, California",-121.9101221,37.7159396
"343","Dublin city","Ohio","Small","Bike",16,0.1,0.1,"OH","North Central","Dublin city, Ohio",-83.1140771,40.0992294
"344","Dubuque city","Iowa","Small","Bike",43,0.1,0.1,"IA","North Central","Dubuque city, Iowa",-90.6654675,42.5022661
"345","Duluth city","Georgia","Small","Bike",0,0,0.3,"GA","South","Duluth city, Georgia",-84.1446376,34.0028786
"346","Duluth city","Minnesota","Small","Bike",343,0.8,0.3,"MN","North Central","Duluth city, Minnesota",-92.1004852,46.7866719
"347","Duncan city","Oklahoma","Small","Bike",18,0.2,0.3,"OK","South","Duncan city, Oklahoma",-97.9578128,34.5023028
"348","Duncanville city","Texas","Small","Bike",14,0.1,0.1,"TX","South","Duncanville city, Texas",-96.9083366,32.6518004
"349","Dunedin city","Florida","Small","Bike",296,1.9,0.8,"FL","South","Dunedin city, Florida",-82.7717684,28.0197404
"350","Dunwoody city","Georgia","Small","Bike",32,0.1,0.2,"GA","South","Dunwoody city, Georgia",-84.3346473,33.9462125
"351","Eagan city","Minnesota","Small","Bike",128,0.4,0.2,"MN","North Central","Eagan city, Minnesota",-93.1668858,44.8041322
"352","Eagle city","Idaho","Small","Bike",48,0.6,0.5,"ID","West","Eagle city, Idaho",-116.3540138,43.6954424
"353","Eagle Mountain city","Utah","Small","Bike",0,0,0.4,"UT","West","Eagle Mountain city, Utah",-112.006882,40.3141169
"354","Eagle Pass city","Texas","Small","Bike",11,0.1,0.2,"TX","South","Eagle Pass city, Texas",-100.4995214,28.7091433
"355","Easley city","South Carolina","Small","Bike",11,0.1,0.2,"SC","South","Easley city, South Carolina",-82.6015206,34.829838
"356","East Chicago city","Indiana","Small","Bike",0,0,0.3,"IN","North Central","East Chicago city, Indiana",-87.4547635,41.6392024
"357","East Lansing city","Michigan","Small","Bike",1374,6.8,1.2,"MI","North Central","East Lansing city, Michigan",-84.4838654,42.7369792
"358","East Moline city","Illinois","Small","Bike",0,0,0.3,"IL","North Central","East Moline city, Illinois",-90.4442979,41.5008673
"359","East Orange city","New Jersey","Small","Bike",17,0.1,0.1,"NJ","Northeast","East Orange city, New Jersey",-74.2048677,40.767323
"360","East Palo Alto city","California","Small","Bike",440,3.6,3.6,"CA","West","East Palo Alto city, California",-122.1410751,37.4688273
"361","East Peoria city","Illinois","Small","Bike",0,0,0.3,"IL","North Central","East Peoria city, Illinois",-89.5800978,40.666149
"362","East Point city","Georgia","Small","Bike",45,0.3,0.4,"GA","South","East Point city, Georgia",-84.4393724,33.6795531
"363","East Providence city","Rhode Island","Small","Bike",78,0.4,0.3,"RI","Northeast","East Providence city, Rhode Island",-71.3700545,41.8137116
"364","East Ridge city","Tennessee","Small","Bike",3,0,0.1,"TN","South","East Ridge city, Tennessee",-85.2256635,34.9947441
"365","East St. Louis city","Illinois","Small","Bike",48,0.6,0.5,"IL","North Central","East St. Louis city, Illinois",-90.1506465,38.624514
"366","Easton city","Pennsylvania","Small","Bike",25,0.2,0.2,"PA","Northeast","Easton city, Pennsylvania",-75.2207323,40.688432
"367","Eastpointe city","Michigan","Small","Bike",0,0,0.2,"MI","North Central","Eastpointe city, Michigan",-82.9554746,42.4683698
"368","Eastvale city","California","Small","Bike",45,0.2,0.3,"CA","West","Eastvale city, California",-117.5848025,33.952463
"369","Eau Claire city","Wisconsin","Small","Bike",389,1.1,0.3,"WI","North Central","Eau Claire city, Wisconsin",-91.4984941,44.811349
"370","Eden Prairie city","Minnesota","Small","Bike",117,0.4,0.4,"MN","North Central","Eden Prairie city, Minnesota",-93.470786,44.8546856
"371","Edgewater city","Florida","Small","Bike",82,0.9,0.9,"FL","South","Edgewater city, Florida",-80.9022758,28.9888754
"372","Edina city","Minnesota","Small","Bike",220,1,0.5,"MN","North Central","Edina city, Minnesota",-93.3499489,44.8896866
"373","Edinburg city","Texas","Small","Bike",90,0.3,0.2,"TX","South","Edinburg city, Texas",-98.1633432,26.3017374
"374","Edmond city","Oklahoma","Small","Bike",106,0.3,0.1,"OK","South","Edmond city, Oklahoma",-97.4780954,35.6528323
"375","Edmonds city","Washington","Small","Bike",54,0.3,0.2,"WA","West","Edmonds city, Washington",-122.3773551,47.8106521
"376","Edwardsville city","Illinois","Small","Bike",54,0.4,0.4,"IL","North Central","Edwardsville city, Illinois",-89.953157,38.8114364
"377","El Centro city","California","Small","Bike",54,0.4,0.4,"CA","West","El Centro city, California",-115.5630514,32.792
"378","El Cerrito city","California","Small","Bike",263,2.2,0.7,"CA","West","El Cerrito city, California",-122.310765,37.9161326
"379","El Mirage city","Arizona","Small","Bike",23,0.2,0.2,"AZ","West","El Mirage city, Arizona",-112.3246042,33.6130942
"380","El Paso de Robles (Paso Robles) city","Ca","Small","Bike",71,0.5,0.4,NA,NA,"El Paso de Robles (Paso Robles) city, Ca",-120.6545022,35.6368759
"381","Elizabethtown city","Kentucky","Small","Bike",0,0,0.3,"KY","South","Elizabethtown city, Kentucky",-85.8649408,37.7030646
"382","Elk Grove Village village","Illinois","Small","Bike",22,0.1,0.2,"IL","North Central","Elk Grove Village village, Illinois",-87.9597101,42.0113494
"383","Elk River city","Minnesota","Small","Bike",26,0.2,0.2,"MN","North Central","Elk River city, Minnesota",-93.5691122,45.3377283
"384","Elkhart city","Indiana","Small","Bike",262,1.3,0.6,"IN","North Central","Elkhart city, Indiana",-85.9766671,41.6819935
"385","Elmhurst city","Illinois","Small","Bike",46,0.2,0.2,"IL","North Central","Elmhurst city, Illinois",-87.9403418,41.8994744
"386","Elmira city","New York","Small","Bike",56,0.5,0.3,"NY","Northeast","Elmira city, New York",-76.8077338,42.0897965
"387","Elmwood Park village","Illinois","Small","Bike",20,0.2,0.2,"IL","North Central","Elmwood Park village, Illinois",-87.8092266,41.9211423
"388","Elyria city","Ohio","Small","Bike",104,0.4,0.3,"OH","North Central","Elyria city, Ohio",-82.1076486,41.3683798
"389","Emporia city","Kansas","Small","Bike",60,0.5,0.5,"KS","North Central","Emporia city, Kansas",-96.1816626,38.403903
"390","Encinitas city","California","Small","Bike",470,1.6,0.5,"CA","West","Encinitas city, California",-117.2919818,33.0369867
"391","Englewood city","Colorado","Small","Bike",210,1.3,0.7,"CO","West","Englewood city, Colorado",-104.9877597,39.6477653
"392","Englewood city","New Jersey","Small","Bike",35,0.3,0.3,"NJ","Northeast","Englewood city, New Jersey",-73.9726381,40.8928771
"393","Enid city","Oklahoma","Small","Bike",28,0.1,0.1,"OK","South","Enid city, Oklahoma",-97.8783911,36.3955891
"394","Enterprise city","Alabama","Small","Bike",13,0.1,0.1,"AL","South","Enterprise city, Alabama",-85.8552161,31.3151708
"395","Euclid city","Ohio","Small","Bike",14,0.1,0.1,"OH","North Central","Euclid city, Ohio",-81.5267873,41.5931049
"396","Euless city","Texas","Small","Bike",83,0.3,0.3,"TX","South","Euless city, Texas",-97.0819541,32.8370727
"397","Eureka city","California","Small","Bike",232,1.9,1,"CA","West","Eureka city, California",-124.1636729,40.8020712
"398","Evanston city","Illinois","Small","Bike",1073,3,0.5,"IL","North Central","Evanston city, Illinois",-87.6876969,42.0450722
"399","Everett city","Massachusetts","Small","Bike",162,0.7,0.5,"MA","Northeast","Everett city, Massachusetts",-71.0536625,42.40843
"400","Fair Lawn borough","New Jersey","Small","Bike",9,0.1,0.1,"NJ","Northeast","Fair Lawn borough, New Jersey",-74.1181234,40.9370006
"401","Fairbanks city","Alaska","Small","Bike",301,1.9,0.9,"AK","West","Fairbanks city, Alaska",-147.7163888,64.8377778
"402","Fairborn city","Ohio","Small","Bike",81,0.5,0.5,"OH","North Central","Fairborn city, Ohio",-84.0193789,39.8208925
"403","Fairfax city","Virginia","Small","Bike",23,0.2,0.2,"VA","South","Fairfax city, Virginia",-77.3063733,38.8462236
"404","Fairfield city","Ohio","Small","Bike",0,0,0.1,"OH","North Central","Fairfield city, Ohio",-84.5603187,39.3454673
"405","Fall River city","Massachusetts","Small","Bike",90,0.3,0.2,"MA","Northeast","Fall River city, Massachusetts",-71.1550451,41.7014912
"406","Faribault city","Minnesota","Small","Bike",12,0.1,0.2,"MN","North Central","Faribault city, Minnesota",-93.268827,44.2949636
"407","Farmers Branch city","Texas","Small","Bike",18,0.1,0.2,"TX","South","Farmers Branch city, Texas",-96.8961151,32.9265137
"408","Farmington city","Minnesota","Small","Bike",13,0.1,0.2,"MN","North Central","Farmington city, Minnesota",-93.1435497,44.6402434
"409","Farmington city","New Mexico","Small","Bike",91,0.5,0.5,"NM","West","Farmington city, New Mexico",-108.2186856,36.7280583
"410","Farmington city","Utah","Small","Bike",7,0.1,0.2,"UT","West","Farmington city, Utah",-111.8874392,40.9804999
"411","Farmington Hills city","Michigan","Small","Bike",82,0.2,0.2,"MI","North Central","Farmington Hills city, Michigan",-83.3677168,42.4989936
"412","Farragut town","Tennessee","Small","Bike",0,0,0.4,"TN","South","Farragut town, Tennessee",-84.1711345,35.8778548
"413","Fayetteville city","Arkansas","Small","Bike",213,0.6,0.3,"AR","South","Fayetteville city, Arkansas",-94.1718542,36.082156
"414","Federal Way city","Washington","Small","Bike",49,0.1,0.1,"WA","West","Federal Way city, Washington",-122.3126222,47.3223221
"415","Ferguson city","Missouri","Small","Bike",9,0.1,0.2,"MO","North Central","Ferguson city, Missouri",-90.3053915,38.7442175
"416","Ferndale city","Michigan","Small","Bike",62,0.6,0.5,"MI","North Central","Ferndale city, Michigan",-83.1346478,42.4605917
"417","Findlay city","Ohio","Small","Bike",155,0.8,0.5,"OH","North Central","Findlay city, Ohio",-83.6499321,41.04422
"418","Fishers town","Indiana","Small","Bike",49,0.1,0.1,"IN","North Central","Fishers town, Indiana",-86.01335,39.9567548
"419","Fitchburg city","Massachusetts","Small","Bike",11,0.1,0.1,"MA","Northeast","Fitchburg city, Massachusetts",-71.8022955,42.5834228
"420","Fitchburg city","Wisconsin","Small","Bike",119,0.9,0.6,"WI","North Central","Fitchburg city, Wisconsin",-89.424092,43.0023146
"421","Flagstaff city","Arizona","Small","Bike",1713,4.9,0.8,"AZ","West","Flagstaff city, Arizona",-111.651302,35.1982836
"422","Florence city","Alabama","Small","Bike",39,0.2,0.3,"AL","South","Florence city, Alabama",-87.677251,34.79981
"423","Florence city","Kentucky","Small","Bike",28,0.2,0.2,"KY","South","Florence city, Kentucky",-84.6266111,38.9989499
"424","Florence city","South Carolina","Small","Bike",94,0.6,0.4,"SC","South","Florence city, South Carolina",-79.7625625,34.1954331
"425","Florence town","Arizona","Small","Bike",0,0,1.3,"AZ","West","Florence town, Arizona",-111.3873431,33.0314508
"426","Florissant city","Missouri","Small","Bike",31,0.1,0.1,"MO","North Central","Florissant city, Missouri",-90.322614,38.789217
"427","Flower Mound town","Texas","Small","Bike",38,0.1,0.1,"TX","South","Flower Mound town, Texas",-97.0969552,33.0145673
"428","Folsom city","California","Small","Bike",240,0.8,0.4,"CA","West","Folsom city, California",-121.1760583,38.6779591
"429","Fond du Lac city","Wisconsin","Small","Bike",258,1.2,0.5,"WI","North Central","Fond du Lac city, Wisconsin",-88.4470508,43.7730448
"430","Forest Grove city","Oregon","Small","Bike",72,0.8,0.8,"OR","West","Forest Grove city, Oregon",-123.1211134,45.526998
"431","Fort Dodge city","Iowa","Small","Bike",69,0.6,0.7,"IA","North Central","Fort Dodge city, Iowa",-94.1680158,42.4974694
"432","Fort Lee borough","New Jersey","Small","Bike",5,0,0.1,"NJ","Northeast","Fort Lee borough, New Jersey",-73.9724902,40.8527649
"433","Fort Myers city","Florida","Small","Bike",292,1.2,0.6,"FL","South","Fort Myers city, Florida",-81.8723084,26.640628
"434","Fort Pierce city","Florida","Small","Bike",41,0.3,0.3,"FL","South","Fort Pierce city, Florida",-80.3256056,27.4467056
"435","Fort Smith city","Arkansas","Small","Bike",26,0.1,0.1,"AR","South","Fort Smith city, Arkansas",-94.3985475,35.3859242
"436","Fort Walton Beach city","Florida","Small","Bike",77,0.8,0.6,"FL","South","Fort Walton Beach city, Florida",-86.6170308,30.4200708
"437","Foster City city","California","Small","Bike",68,0.5,0.3,"CA","West","Foster City city, California",-122.2710788,37.5585465
"438","Fountain city","Colorado","Small","Bike",34,0.3,0.3,"CO","West","Fountain city, Colorado",-104.7008056,38.682219
"439","Fountain Hills town","Arizona","Small","Bike",8,0.1,0.2,"AZ","West","Fountain Hills town, Arizona",-111.7256936,33.6042079
"440","Fountain Valley city","California","Small","Bike",106,0.4,0.2,"CA","West","Fountain Valley city, California",-117.9544069,33.7090212
"441","Frankfort city","Kentucky","Small","Bike",40,0.3,0.3,"KY","South","Frankfort city, Kentucky",-84.8732835,38.2009055
"442","Franklin city","Indiana","Small","Bike",21,0.2,0.2,"IN","North Central","Franklin city, Indiana",-86.0549863,39.4806055
"443","Franklin city","Tennessee","Small","Bike",45,0.1,0.2,"TN","South","Franklin city, Tennessee",-86.8688899,35.9250637
"444","Franklin city","Wisconsin","Small","Bike",0,0,0.1,"WI","North Central","Franklin city, Wisconsin",-88.0384195,42.888627
"445","Franklin Town city","Massachusetts","Small","Bike",44,0.3,0.4,"MA","Northeast","Franklin Town city, Massachusetts",-71.396725,42.0834313
"446","Frederick city","Maryland","Small","Bike",105,0.3,0.2,"MD","South","Frederick city, Maryland",-77.4105409,39.4142688
"447","Fredericksburg city","Virginia","Small","Bike",86,0.7,0.5,"VA","South","Fredericksburg city, Virginia",-77.4605399,38.3031837
"448","Freeport city","Illinois","Small","Bike",106,1,0.7,"IL","North Central","Freeport city, Illinois",-89.6212271,42.2966861
"449","Freeport village","New York","Small","Bike",170,0.8,0.6,"NY","Northeast","Freeport village, New York",-73.5831835,40.6576022
"450","Fremont city","Nebraska","Small","Bike",80,0.6,0.6,"NE","North Central","Fremont city, Nebraska",-96.4981467,41.4333909
"451","Fridley city","Minnesota","Small","Bike",61,0.4,0.4,"MN","North Central","Fridley city, Minnesota",-93.2632821,45.0860765
"452","Friendswood city","Texas","Small","Bike",25,0.1,0.2,"TX","South","Friendswood city, Texas",-95.2010447,29.5293998
"453","Gadsden city","Alabama","Small","Bike",8,0.1,0.1,"AL","South","Gadsden city, Alabama",-86.0066386,34.014264
"454","Gahanna city","Ohio","Small","Bike",24,0.1,0.2,"OH","North Central","Gahanna city, Ohio",-82.8793446,40.0192307
"455","Gainesville city","Georgia","Small","Bike",11,0.1,0.1,"GA","South","Gainesville city, Georgia",-83.8240663,34.2978794
"456","Gaithersburg city","Maryland","Small","Bike",148,0.5,0.4,"MD","South","Gaithersburg city, Maryland",-77.2016062,39.1439689
"457","Galesburg city","Illinois","Small","Bike",89,0.7,0.5,"IL","North Central","Galesburg city, Illinois",-90.3936722,40.937822
"458","Gallatin city","Tennessee","Small","Bike",0,0,0.3,"TN","South","Gallatin city, Tennessee",-86.4466599,36.3883809
"459","Gallup city","New Mexico","Small","Bike",36,0.4,0.4,"NM","West","Gallup city, New Mexico",-108.7425843,35.5280783
"460","Galt city","California","Small","Bike",0,0,0.4,"CA","West","Galt city, California",-121.2999485,38.2546373
"461","Galveston city","Texas","Small","Bike",586,2.7,0.7,"TX","South","Galveston city, Texas",-94.7976958,29.3013479
"462","Garden City city","Kansas","Small","Bike",131,1,0.6,"KS","North Central","Garden City city, Kansas",-100.8726618,37.9716898
"463","Garden City city","Michigan","Small","Bike",44,0.4,0.3,"MI","North Central","Garden City city, Michigan",-83.3300903,42.3295293
"464","Garden City village","New York","Small","Bike",13,0.1,0.2,"NY","Northeast","Garden City village, New York",-73.6342954,40.7267682
"465","Gardena city","California","Small","Bike",80,0.3,0.3,"CA","West","Gardena city, California",-118.3089624,33.8883487
"466","Gardner city","Kansas","Small","Bike",0,0,0.3,"KS","North Central","Gardner city, Kansas",-94.9271868,38.8108408
"467","Gardner city","Massachusetts","Small","Bike",37,0.4,0.4,"MA","Northeast","Gardner city, Massachusetts",-71.998133,42.5750883
"468","Garfield city","New Jersey","Small","Bike",95,0.6,0.5,"NJ","Northeast","Garfield city, New Jersey",-74.1063776,40.8761974
"469","Garfield Heights city","Ohio","Small","Bike",28,0.2,0.2,"OH","North Central","Garfield Heights city, Ohio",-81.6059581,41.4169974
"470","Garner town","North Carolina","Small","Bike",0,0,0.3,"NC","South","Garner town, North Carolina",-78.6141709,35.7112642
"471","Gary city","Indiana","Small","Bike",59,0.2,0.2,"IN","North Central","Gary city, Indiana",-87.3371523,41.6020403
"472","Gastonia city","North Carolina","Small","Bike",18,0.1,0.1,"NC","South","Gastonia city, North Carolina",-81.1873005,35.262082
"473","Geneva city","Illinois","Small","Bike",26,0.3,0.3,"IL","North Central","Geneva city, Illinois",-88.3053525,41.8875281
"474","Georgetown city","Kentucky","Small","Bike",0,0,0.2,"KY","South","Georgetown city, Kentucky",-84.5588311,38.2097967
"475","Georgetown city","Texas","Small","Bike",19,0.1,0.1,"TX","South","Georgetown city, Texas",-97.6779842,30.6332618
"476","Germantown city","Tennessee","Small","Bike",0,0,0.2,"TN","South","Germantown city, Tennessee",-89.8100858,35.0867577
"477","Gillette city","Wyoming","Small","Bike",30,0.2,0.3,"WY","West","Gillette city, Wyoming",-105.5022205,44.2910915
"478","Gilroy city","California","Small","Bike",190,0.9,0.5,"CA","West","Gilroy city, California",-121.5566373,37.0029828
"479","Gladstone city","Missouri","Small","Bike",0,0,0.2,"MO","North Central","Gladstone city, Missouri",-94.554677,39.2038918
"480","Glen Cove city","New York","Small","Bike",25,0.2,0.2,"NY","Northeast","Glen Cove city, New York",-73.6337389,40.8623217
"481","Glen Ellyn village","Illinois","Small","Bike",35,0.3,0.3,"IL","North Central","Glen Ellyn village, Illinois",-88.0670118,41.8775293
"482","Glendale Heights village","Illinois","Small","Bike",72,0.4,0.3,"IL","North Central","Glendale Heights village, Illinois",-88.0717353,41.9103068
"483","Glendora city","California","Small","Bike",90,0.4,0.2,"CA","West","Glendora city, California",-117.865339,34.1361187
"484","Glenview village","Illinois","Small","Bike",44,0.2,0.2,"IL","North Central","Glenview village, Illinois",-87.8223368,42.0778065
"485","Gloucester city","Massachusetts","Small","Bike",69,0.5,0.4,"MA","Northeast","Gloucester city, Massachusetts",-70.6619888,42.6159285
"486","Golden Valley city","Minnesota","Small","Bike",190,1.8,1.6,"MN","North Central","Golden Valley city, Minnesota",-93.3600034,44.9917149
"487","Goldsboro city","North Carolina","Small","Bike",79,0.6,0.3,"NC","South","Goldsboro city, North Carolina",-77.9927651,35.3848841
"488","Goleta city","California","Small","Bike",844,5.4,1.3,"CA","West","Goleta city, California",-119.8276389,34.4358294
"489","Goodyear city","Arizona","Small","Bike",16,0.1,0.1,"AZ","West","Goodyear city, Arizona",-112.3576567,33.4353394
"490","Goose Creek city","South Carolina","Small","Bike",61,0.3,0.2,"SC","South","Goose Creek city, South Carolina",-80.0325867,32.9810059
"491","Goshen city","Indiana","Small","Bike",260,1.9,1,"IN","North Central","Goshen city, Indiana",-85.8344383,41.5822716
"492","Grand Forks city","North Dakota","Small","Bike",387,1.3,0.4,"ND","North Central","Grand Forks city, North Dakota",-97.0328547,47.9252568
"493","Grand Island city","Nebraska","Small","Bike",175,0.7,0.5,"NE","North Central","Grand Island city, Nebraska",-98.3420118,40.9263957
"494","Grand Junction city","Colorado","Small","Bike",635,2.3,0.6,"CO","West","Grand Junction city, Colorado",-108.5506486,39.0638705
"495","Grandview city","Missouri","Small","Bike",0,0,0.3,"MO","North Central","Grandview city, Missouri",-94.5330096,38.8858407
"496","Granite City city","Illinois","Small","Bike",20,0.2,0.2,"IL","North Central","Granite City city, Illinois",-90.1487199,38.7014389
"497","Grants Pass city","Oregon","Small","Bike",181,1.4,0.7,"OR","West","Grants Pass city, Oregon",-123.3283925,42.4390069
"498","Grapevine city","Texas","Small","Bike",134,0.5,0.5,"TX","South","Grapevine city, Texas",-97.0780654,32.9342919
"499","Grayslake village","Illinois","Small","Bike",31,0.3,0.3,"IL","North Central","Grayslake village, Illinois",-88.041746,42.3444664
"500","Great Falls city","Montana","Small","Bike",272,1,0.4,"MT","West","Great Falls city, Montana",-111.3007715,47.5052849
"501","Greeley city","Colorado","Small","Bike",725,1.8,0.5,"CO","West","Greeley city, Colorado",-104.7091322,40.4233142
"502","Green city","Ohio","Small","Bike",0,0,0.2,"OH","North Central","Green city, Ohio",-81.4831714,40.9458898
"503","Greenacres city","Florida","Small","Bike",142,0.8,0.7,"FL","South","Greenacres city, Florida",-80.1353896,26.6276276
"504","Greenbelt city","Maryland","Small","Bike",24,0.2,0.2,"MD","South","Greenbelt city, Maryland",-76.8755282,39.0045544
"505","Greenfield city","Indiana","Small","Bike",40,0.4,0.5,"IN","North Central","Greenfield city, Indiana",-85.7694226,39.785043
"506","Greenfield city","Wisconsin","Small","Bike",55,0.3,0.3,"WI","North Central","Greenfield city, Wisconsin",-88.0125865,42.9614039
"507","Greenville city","Mississippi","Small","Bike",10,0.1,0.1,"MS","South","Greenville city, Mississippi",-91.0377029,33.399661
"508","Greenville city","North Carolina","Small","Bike",181,0.4,0.2,"NC","South","Greenville city, North Carolina",-77.3663538,35.612661
"509","Greenville city","South Carolina","Small","Bike",72,0.3,0.2,"SC","South","Greenville city, South Carolina",-82.3940104,34.8526176
"510","Greenville city","Texas","Small","Bike",0,0,0.4,"TX","South","Greenville city, Texas",-96.1108066,33.1384488
"511","Greenwood city","Indiana","Small","Bike",28,0.1,0.1,"IN","North Central","Greenwood city, Indiana",-86.1066526,39.6136578
"512","Greenwood city","South Carolina","Small","Bike",0,0,0.5,"SC","South","Greenwood city, South Carolina",-82.1617883,34.1954001
"513","Greer city","South Carolina","Small","Bike",25,0.2,0.3,"SC","South","Greer city, South Carolina",-82.2270568,34.9387279
"514","Griffin city","Georgia","Small","Bike",31,0.4,0.4,"GA","South","Griffin city, Georgia",-84.2640904,33.2467807
"515","Grove City city","Ohio","Small","Bike",40,0.2,0.2,"OH","North Central","Grove City city, Ohio",-83.0929644,39.8814519
"516","Gulfport city","Mississippi","Small","Bike",84,0.3,0.2,"MS","South","Gulfport city, Mississippi",-89.0928155,30.3674198
"517","Gurnee village","Illinois","Small","Bike",79,0.5,0.4,"IL","North Central","Gurnee village, Illinois",-87.9020186,42.3702996
"518","Hackensack city","New Jersey","Small","Bike",96,0.4,0.4,"NJ","Northeast","Hackensack city, New Jersey",-74.0434736,40.8859325
"519","Hagerstown city","Maryland","Small","Bike",46,0.3,0.2,"MD","South","Hagerstown city, Maryland",-77.7199932,39.6417629
"520","Haines City city","Florida","Small","Bike",0,0,0.6,"FL","South","Haines City city, Florida",-81.6178536,28.1141841
"521","Hallandale Beach city","Florida","Small","Bike",305,1.9,1.2,"FL","South","Hallandale Beach city, Florida",-80.148379,25.9812024
"522","Haltom City city","Texas","Small","Bike",45,0.2,0.2,"TX","South","Haltom City city, Texas",-97.2691817,32.7995738
"523","Hamilton city","Ohio","Small","Bike",53,0.2,0.2,"OH","North Central","Hamilton city, Ohio",-84.5613355,39.3995008
"524","Hammond city","Indiana","Small","Bike",57,0.2,0.2,"IN","North Central","Hammond city, Indiana",-87.5000412,41.5833688
"525","Hammond city","Louisiana","Small","Bike",184,2.2,1.2,"LA","South","Hammond city, Louisiana",-90.4611995,30.5043583
"526","Hamtramck city","Michigan","Small","Bike",11,0.2,0.3,"MI","North Central","Hamtramck city, Michigan",-83.0496438,42.3928151
"527","Hanford city","California","Small","Bike",173,0.8,0.6,"CA","West","Hanford city, California",-119.6456844,36.3274502
"528","Hanover Park village","Illinois","Small","Bike",170,0.9,0.6,"IL","North Central","Hanover Park village, Illinois",-88.1450735,41.9994722
"529","Harker Heights city","Texas","Small","Bike",20,0.2,0.3,"TX","South","Harker Heights city, Texas",-97.6597376,31.0835102
"530","Harlingen city","Texas","Small","Bike",135,0.6,0.4,"TX","South","Harlingen city, Texas",-97.6961026,26.1906306
"531","Harrisburg city","Pennsylvania","Small","Bike",91,0.5,0.4,"PA","Northeast","Harrisburg city, Pennsylvania",-76.8867008,40.2731911
"532","Harrison village","New York","Small","Bike",50,0.4,0.5,"NY","Northeast","Harrison village, New York",-73.7176337,40.9700171
"533","Harrisonburg city","Virginia","Small","Bike",341,1.7,0.8,"VA","South","Harrisonburg city, Virginia",-78.8689155,38.4495688
"534","Harvey city","Illinois","Small","Bike",0,0,0.4,"IL","North Central","Harvey city, Illinois",-87.6467131,41.6100344
"535","Hastings city","Minnesota","Small","Bike",48,0.4,0.3,"MN","North Central","Hastings city, Minnesota",-92.8513706,44.7443293
"536","Hastings city","Nebraska","Small","Bike",39,0.3,0.3,"NE","North Central","Hastings city, Nebraska",-98.3898726,40.5862583
"537","Hattiesburg city","Mississippi","Small","Bike",245,1.2,0.5,"MS","South","Hattiesburg city, Mississippi",-89.2903392,31.3271189
"538","Havelock city","North Carolina","Small","Bike",57,0.5,0.7,"NC","South","Havelock city, North Carolina",-76.9013301,34.8790492
"539","Haverhill city","Massachusetts","Small","Bike",35,0.1,0.1,"MA","Northeast","Haverhill city, Massachusetts",-71.0772796,42.7762015
"540","Hawthorne city","California","Small","Bike",330,0.9,0.4,"CA","West","Hawthorne city, California",-118.3525748,33.9164032
"541","Hays city","Kansas","Small","Bike",54,0.4,0.4,"KS","North Central","Hays city, Kansas",-99.3267702,38.8791783
"542","Hazelwood city","Missouri","Small","Bike",0,0,0.2,"MO","North Central","Hazelwood city, Missouri",-90.3709489,38.7714396
"543","Hazleton city","Pennsylvania","Small","Bike",11,0.1,0.2,"PA","Northeast","Hazleton city, Pennsylvania",-75.9746472,40.9584181
"544","Helena city","Montana","Small","Bike",488,3.3,1.1,"MT","West","Helena city, Montana",-112.0391057,46.5891452
"545","Hemet city","California","Small","Bike",50,0.2,0.2,"CA","West","Hemet city, California",-116.9719684,33.7475203
"546","Hempstead village","New York","Small","Bike",255,1,0.9,"NY","Northeast","Hempstead village, New York",-73.5835972,40.6575384
"547","Henderson city","Kentucky","Small","Bike",22,0.2,0.2,"KY","South","Henderson city, Kentucky",-87.5900134,37.8361538
"548","Hendersonville city","Tennessee","Small","Bike",11,0,0.1,"TN","South","Hendersonville city, Tennessee",-86.6199957,36.3047735
"549","Hercules city","California","Small","Bike",38,0.3,0.4,"CA","West","Hercules city, California",-122.2885808,38.0171441
"550","Herndon town","Virginia","Small","Bike",7,0.1,0.1,"VA","South","Herndon town, Virginia",-77.3860976,38.9695545
"551","Herriman city","Utah","Small","Bike",0,0,0.3,"UT","West","Herriman city, Utah",-112.0329938,40.5141147
"552","Hesperia city","California","Small","Bike",54,0.2,0.2,"CA","West","Hesperia city, California",-117.3008784,34.4263886
"553","Hialeah Gardens city","Florida","Small","Bike",11,0.1,0.2,"FL","South","Hialeah Gardens city, Florida",-80.3244957,25.8650961
"554","Hickory city","North Carolina","Small","Bike",23,0.1,0.2,"NC","South","Hickory city, North Carolina",-81.3444573,35.7344538
"555","Highland city","California","Small","Bike",22,0.1,0.1,"CA","West","Highland city, California",-117.2086513,34.1283442
"556","Highland Park city","Illinois","Small","Bike",90,0.6,0.4,"IL","North Central","Highland Park city, Illinois",-87.8003437,42.1816918
"557","Highland town","Indiana","Small","Bike",10,0.1,0.1,"IN","North Central","Highland town, Indiana",-87.451984,41.5536468
"558","Hilliard city","Ohio","Small","Bike",12,0.1,0.1,"OH","North Central","Hilliard city, Ohio",-83.1582451,40.0333961
"559","Hillsboro city","Oregon","Small","Bike",568,1.3,0.5,"OR","West","Hillsboro city, Oregon",-122.9392109,45.514913
"560","Hilton Head Island town","South Carolina","Small","Bike",377,2.3,0.8,"SC","South","Hilton Head Island town, South Carolina",-80.752608,32.216316
"561","Hinesville city","Georgia","Small","Bike",87,0.6,0.5,"GA","South","Hinesville city, Georgia",-81.6141099,31.8315028
"562","Hobart city","Indiana","Small","Bike",42,0.3,0.3,"IN","North Central","Hobart city, Indiana",-87.2550353,41.5322592
"563","Hobbs city","New Mexico","Small","Bike",10,0.1,0.1,"NM","West","Hobbs city, New Mexico",-103.1360403,32.7026116
"564","Hoboken city","New Jersey","Small","Bike",187,0.6,0.4,"NJ","Northeast","Hoboken city, New Jersey",-74.0323626,40.7439905
"565","Hoffman Estates village","Illinois","Small","Bike",341,1.3,1.2,"IL","North Central","Hoffman Estates village, Illinois",-88.1227199,42.0629915
"566","Holladay city","Utah","Small","Bike",7,0.1,0.1,"UT","West","Holladay city, Utah",-111.8246557,40.6688363
"567","Holland city","Michigan","Small","Bike",316,2.2,0.7,"MI","North Central","Holland city, Michigan",-86.1089301,42.7875235
"568","Hollister city","California","Small","Bike",183,1.2,1,"CA","West","Hollister city, California",-121.4016021,36.8524545
"569","Holly Springs town","North Carolina","Small","Bike",0,0,0.3,"NC","South","Holly Springs town, North Carolina",-78.8336218,35.6512655
"570","Holyoke city","Massachusetts","Small","Bike",59,0.4,0.3,"MA","Northeast","Holyoke city, Massachusetts",-72.6162009,42.2042586
"571","Homer Glen village","Illinois","Small","Bike",0,0,0.2,"IL","North Central","Homer Glen village, Illinois",-87.9381112,41.6000317
"572","Homestead city","Florida","Small","Bike",162,0.6,0.4,"FL","South","Homestead city, Florida",-80.4775569,25.4687224
"573","Homewood city","Alabama","Small","Bike",68,0.5,0.5,"AL","South","Homewood city, Alabama",-86.8008228,33.4717732
"574","Hoover city","Alabama","Small","Bike",0,0,0.1,"AL","South","Hoover city, Alabama",-86.8113781,33.4053867
"575","Hopewell city","Virginia","Small","Bike",20,0.2,0.3,"VA","South","Hopewell city, Virginia",-77.2872001,37.3043154
"576","Hopkinsville city","Kentucky","Small","Bike",11,0.1,0.1,"KY","South","Hopkinsville city, Kentucky",-87.4886186,36.8656008
"577","Horn Lake city","Mississippi","Small","Bike",0,0,0.3,"MS","South","Horn Lake city, Mississippi",-90.0348139,34.9553719
"578","Hot Springs city","Arkansas","Small","Bike",47,0.3,0.4,"AR","South","Hot Springs city, Arkansas",-93.0551795,34.5037004
"579","Houma city","Louisiana","Small","Bike",76,0.5,0.5,"LA","South","Houma city, Louisiana",-90.7195348,29.5957696
"580","Huber Heights city","Ohio","Small","Bike",7,0,0.1,"OH","North Central","Huber Heights city, Ohio",-84.1246608,39.843947
"581","Hudson city","Ohio","Small","Bike",23,0.2,0.3,"OH","North Central","Hudson city, Ohio",-81.440667,41.240056
"582","Huntersville town","North Carolina","Small","Bike",75,0.3,0.5,"NC","South","Huntersville town, North Carolina",-80.8428504,35.410694
"583","Huntington city","West Virginia","Small","Bike",207,1,0.4,"WV","South","Huntington city, West Virginia",-82.445154,38.4192496
"584","Huntington Park city","California","Small","Bike",272,1.1,0.4,"CA","West","Huntington Park city, California",-118.2250725,33.9816812
"585","Huntley village","Illinois","Small","Bike",29,0.3,0.3,"IL","North Central","Huntley village, Illinois",-88.4281415,42.1680796
"586","Huntsville city","Texas","Small","Bike",47,0.4,0.6,"TX","South","Huntsville city, Texas",-95.5507771,30.7235263
"587","Hurst city","Texas","Small","Bike",52,0.3,0.4,"TX","South","Hurst city, Texas",-97.1705678,32.8234621
"588","Hutchinson city","Kansas","Small","Bike",58,0.3,0.2,"KS","North Central","Hutchinson city, Kansas",-97.9297743,38.0608445
"589","Idaho Falls city","Idaho","Small","Bike",256,1,0.5,"ID","West","Idaho Falls city, Idaho",-112.0407584,43.4926607
"590","Imperial Beach city","California","Small","Bike",113,1,0.7,"CA","West","Imperial Beach city, California",-117.1130849,32.5839444
"591","Independence city","Kentucky","Small","Bike",0,0,0.3,"KY","South","Independence city, Kentucky",-84.544109,38.9431183
"592","Indian Trail town","North Carolina","Small","Bike",14,0.1,0.1,"NC","South","Indian Trail town, North Carolina",-80.6692352,35.0768141
"593","Indio city","California","Small","Bike",133,0.5,0.3,"CA","West","Indio city, California",-116.2155619,33.7205771
"594","Inkster city","Michigan","Small","Bike",6,0.1,0.1,"MI","North Central","Inkster city, Michigan",-83.3099303,42.2942045
"595","Inver Grove Heights city","Minnesota","Small","Bike",39,0.2,0.2,"MN","North Central","Inver Grove Heights city, Minnesota",-93.0427153,44.8480218
"596","Iowa City city","Iowa","Small","Bike",1477,3.9,0.7,"IA","North Central","Iowa City city, Iowa",-91.5301683,41.6611277
"597","Issaquah city","Washington","Small","Bike",121,0.8,0.7,"WA","West","Issaquah city, Washington",-122.0326191,47.5301011
"598","Ithaca city","New York","Small","Bike",283,2.2,1,"NY","Northeast","Ithaca city, New York",-76.5018807,42.4439614
"599","Jackson city","Michigan","Small","Bike",95,0.8,0.5,"MI","North Central","Jackson city, Michigan",-84.4013462,42.245869
"600","Jackson city","Tennessee","Small","Bike",29,0.1,0.1,"TN","South","Jackson city, Tennessee",-88.8139469,35.6145169
"601","Jacksonville Beach city","Florida","Small","Bike",267,2.3,1.1,"FL","South","Jacksonville Beach city, Florida",-81.3961338,30.2841224
"602","Jacksonville city","Arkansas","Small","Bike",16,0.1,0.2,"AR","South","Jacksonville city, Arkansas",-92.1101458,34.8662005
"603","Jacksonville city","North Carolina","Small","Bike",303,0.8,0.6,"NC","South","Jacksonville city, North Carolina",-77.4302414,34.7540524
"604","Jamestown city","New York","Small","Bike",52,0.4,0.4,"NY","Northeast","Jamestown city, New York",-79.2353259,42.0970023
"605","Janesville city","Wisconsin","Small","Bike",95,0.3,0.2,"WI","North Central","Janesville city, Wisconsin",-89.0187222,42.6827885
"606","Jefferson City city","Missouri","Small","Bike",23,0.1,0.1,"MO","North Central","Jefferson City city, Missouri",-92.1735164,38.5767017
"607","Jeffersontown city","Kentucky","Small","Bike",12,0.1,0.1,"KY","South","Jeffersontown city, Kentucky",-85.5644033,38.1942356
"608","Jeffersonville city","Indiana","Small","Bike",87,0.4,0.4,"IN","North Central","Jeffersonville city, Indiana",-85.7371847,38.2775702
"609","Johns Creek city","Georgia","Small","Bike",80,0.2,0.2,"GA","South","Johns Creek city, Georgia",-84.198579,34.0289259
"610","Johnson City city","Tennessee","Small","Bike",45,0.2,0.1,"TN","South","Johnson City city, Tennessee",-82.3534727,36.3134397
"611","Johnstown city","Pennsylvania","Small","Bike",10,0.1,0.2,"PA","Northeast","Johnstown city, Pennsylvania",-78.9219698,40.3267407
"612","Jonesboro city","Arkansas","Small","Bike",104,0.3,0.2,"AR","South","Jonesboro city, Arkansas",-90.704279,35.8422967
"613","Joplin city","Missouri","Small","Bike",48,0.2,0.2,"MO","North Central","Joplin city, Missouri",-94.513281,37.0842271
"614","Junction City city","Kansas","Small","Bike",8,0.1,0.1,"KS","North Central","Junction City city, Kansas",-96.8313978,39.0286093
"615","Juneau city and borough","Alaska","Small","Bike",213,1.3,0.5,"AK","West","Juneau city and borough, Alaska",-134.4197221,58.3019444
"616","Jupiter town","Florida","Small","Bike",179,0.7,0.4,"FL","South","Jupiter town, Florida",-80.0942087,26.9342246
"617","Jurupa Valley city","California","Small","Bike",86,0.2,0.1,"CA","West","Jurupa Valley city, California",-117.4854802,33.9971974
"618","Kalamazoo city","Michigan","Small","Bike",322,1,0.4,"MI","North Central","Kalamazoo city, Michigan",-85.5872286,42.2917069
"619","Kalispell city","Montana","Small","Bike",188,2.1,1.3,"MT","West","Kalispell city, Montana",-114.316813,48.1919889
"620","Kankakee city","Illinois","Small","Bike",42,0.4,0.3,"IL","North Central","Kankakee city, Illinois",-87.8611531,41.1200325
"621","Kannapolis city","North Carolina","Small","Bike",35,0.2,0.2,"NC","South","Kannapolis city, North Carolina",-80.6217341,35.4873613
"622","Kaysville city","Utah","Small","Bike",26,0.2,0.2,"UT","West","Kaysville city, Utah",-111.9385521,41.0352216
"623","Kearney city","Nebraska","Small","Bike",217,1.3,0.7,"NE","North Central","Kearney city, Nebraska",-99.0816784,40.6993303
"624","Kearny town","New Jersey","Small","Bike",21,0.1,0.2,"NJ","Northeast","Kearny town, New Jersey",-74.1454214,40.7684342
"625","Keene city","New Hampshire","Small","Bike",112,1,0.7,"NH","Northeast","Keene city, New Hampshire",-72.2781409,42.933692
"626","Keizer city","Oregon","Small","Bike",159,1,0.6,"OR","West","Keizer city, Oregon",-123.0262077,44.9901194
"627","Keller city","Texas","Small","Bike",15,0.1,0.1,"TX","South","Keller city, Texas",-97.229298,32.9341893
"628","Kenmore city","Washington","Small","Bike",51,0.5,0.5,"WA","West","Kenmore city, Washington",-122.2496863,47.7583576
"629","Kenner city","Louisiana","Small","Bike",111,0.3,0.4,"LA","South","Kenner city, Louisiana",-90.2417434,29.9940924
"630","Kennesaw city","Georgia","Small","Bike",0,0,0.3,"GA","South","Kennesaw city, Georgia",-84.6154897,34.0234337
"631","Kennewick city","Washington","Small","Bike",92,0.3,0.2,"WA","West","Kennewick city, Washington",-119.119948,46.2086683
"632","Kent city","Ohio","Small","Bike",191,1.3,0.7,"OH","North Central","Kent city, Ohio",-81.3578859,41.1536674
"633","Kentwood city","Michigan","Small","Bike",197,0.8,0.6,"MI","North Central","Kentwood city, Michigan",-85.6447492,42.8694731
"634","Kernersville town","North Carolina","Small","Bike",0,0,0.3,"NC","South","Kernersville town, North Carolina",-80.0736533,36.1198588
"635","Kerrville city","Texas","Small","Bike",31,0.4,0.4,"TX","South","Kerrville city, Texas",-99.1403189,30.0474332
"636","Kettering city","Ohio","Small","Bike",119,0.4,0.3,"OH","North Central","Kettering city, Ohio",-84.1688274,39.6895036
"637","Key West city","Florida","Small","Bike",2439,17.4,2.9,"FL","South","Key West city, Florida",-81.7799871,24.5550593
"638","Kingman city","Arizona","Small","Bike",32,0.3,0.3,"AZ","West","Kingman city, Arizona",-114.0530065,35.189443
"639","Kingsport city","Tennessee","Small","Bike",37,0.2,0.2,"TN","South","Kingsport city, Tennessee",-82.5618186,36.548434
"640","Kingston city","New York","Small","Bike",84,0.8,0.6,"NY","Northeast","Kingston city, New York",-73.9973608,41.9270367
"641","Kingsville city","Texas","Small","Bike",15,0.1,0.2,"TX","South","Kingsville city, Texas",-97.856109,27.5158689
"642","Kinston city","North Carolina","Small","Bike",20,0.3,0.3,"NC","South","Kinston city, North Carolina",-77.5816353,35.2626635
"643","Kirkland city","Washington","Small","Bike",273,1,0.4,"WA","West","Kirkland city, Washington",-122.2059833,47.6768927
"644","Kirkwood city","Missouri","Small","Bike",15,0.1,0.2,"MO","North Central","Kirkwood city, Missouri",-90.406785,38.5833862
"645","Kiryas Joel village","New York","Small","Bike",0,0,0.9,"NY","Northeast","Kiryas Joel village, New York",-74.167924,41.3420381
"646","Kissimmee city","Florida","Small","Bike",243,0.9,0.6,"FL","South","Kissimmee city, Florida",-81.407571,28.2919557
"647","Klamath Falls city","Oregon","Small","Bike",31,0.3,0.3,"OR","West","Klamath Falls city, Oregon",-121.7816704,42.224867
"648","Kokomo city","Indiana","Small","Bike",141,0.7,0.3,"IN","North Central","Kokomo city, Indiana",-86.1336033,40.486427
"649","Kyle city","Texas","Small","Bike",0,0,0.3,"TX","South","Kyle city, Texas",-97.8772267,29.9891052
"650","La Caada Flintridge city","California","Small","Bike",12,0.1,0.2,"CA","West","La Caada Flintridge city, California",-118.2000277,34.2068182
"651","La Crosse city","Wisconsin","Small","Bike",701,2.6,0.7,"WI","North Central","La Crosse city, Wisconsin",-91.2519017,43.8137751
"652","La Habra city","California","Small","Bike",143,0.5,0.3,"CA","West","La Habra city, California",-117.946137,33.9318591
"653","La Mesa city","California","Small","Bike",110,0.4,0.3,"CA","West","La Mesa city, California",-117.0230839,32.7678287
"654","La Mirada city","California","Small","Bike",134,0.6,0.3,"CA","West","La Mirada city, California",-118.0120086,33.9172357
"655","La Porte city","Indiana","Small","Bike",41,0.4,0.5,"IN","North Central","La Porte city, Indiana",-86.7227195,41.611143
"656","La Porte city","Texas","Small","Bike",62,0.4,0.4,"TX","South","La Porte city, Texas",-95.0193728,29.6657838
"657","La Puente city","California","Small","Bike",244,1.4,0.9,"CA","West","La Puente city, California",-117.9495083,34.0200114
"658","La Quinta city","California","Small","Bike",158,1,0.8,"CA","West","La Quinta city, California",-116.3100095,33.6633573
"659","La Vergne city","Tennessee","Small","Bike",10,0.1,0.1,"TN","South","La Vergne city, Tennessee",-86.5819394,36.0156178
"660","La Verne city","California","Small","Bike",69,0.5,0.4,"CA","West","La Verne city, California",-117.7678355,34.1008426
"661","Lacey city","Washington","Small","Bike",90,0.5,0.3,"WA","West","Lacey city, Washington",-122.8232553,47.0358969
"662","Lafayette city","California","Small","Bike",30,0.3,0.3,"CA","West","Lafayette city, California",-122.1180201,37.8857582
"663","Lafayette city","Colorado","Small","Bike",130,1,0.5,"CO","West","Lafayette city, Colorado",-105.0897058,39.9935959
"664","Lafayette city","Indiana","Small","Bike",232,0.7,0.4,"IN","North Central","Lafayette city, Indiana",-86.8752869,40.4167022
"665","LaGrange city","Georgia","Small","Bike",6,0.1,0.1,"GA","South","LaGrange city, Georgia",-85.0322444,33.0362218
"666","Laguna Beach city","California","Small","Bike",60,0.5,0.5,"CA","West","Laguna Beach city, California",-117.7853568,33.5427189
"667","Laguna Hills city","California","Small","Bike",138,0.9,0.6,"CA","West","Laguna Hills city, California",-117.6986604,33.5916433
"668","Laguna Niguel city","California","Small","Bike",54,0.2,0.2,"CA","West","Laguna Niguel city, California",-117.7149438,33.5236744
"669","Lake Charles city","Louisiana","Small","Bike",81,0.3,0.2,"LA","South","Lake Charles city, Louisiana",-93.2173758,30.2265949
"670","Lake Elsinore city","California","Small","Bike",0,0,0.2,"CA","West","Lake Elsinore city, California",-117.3272615,33.6680772
"671","Lake Forest city","California","Small","Bike",246,0.6,0.3,"CA","West","Lake Forest city, California",-117.6861023,33.6469437
"672","Lake Havasu City city","Arizona","Small","Bike",47,0.2,0.2,"AZ","West","Lake Havasu City city, Arizona",-114.3224548,34.483901
"673","Lake in the Hills village","Illinois","Small","Bike",0,0,0.2,"IL","North Central","Lake in the Hills village, Illinois",-88.3303618,42.1816908
"674","Lake Jackson city","Texas","Small","Bike",7,0.1,0.1,"TX","South","Lake Jackson city, Texas",-95.4343859,29.0338575
"675","Lake Oswego city","Oregon","Small","Bike",98,0.6,0.4,"OR","West","Lake Oswego city, Oregon",-122.7163273,45.415734
"676","Lake Stevens city","Washington","Small","Bike",0,0,0.2,"WA","West","Lake Stevens city, Washington",-122.0637425,48.015098
"677","Lake Worth city","Florida","Small","Bike",126,0.8,0.7,"FL","South","Lake Worth city, Florida",-80.0684479,26.6167555
"678","Lakeland city","Florida","Small","Bike",206,0.5,0.3,"FL","South","Lakeland city, Florida",-81.9498042,28.0394654
"679","Lakeville city","Minnesota","Small","Bike",55,0.2,0.2,"MN","North Central","Lakeville city, Minnesota",-93.24272,44.6496868
"680","Lakewood city","California","Small","Bike",247,0.6,0.3,"CA","West","Lakewood city, California",-118.1339563,33.8536269
"681","Lakewood city","Ohio","Small","Bike",171,0.6,0.3,"OH","North Central","Lakewood city, Ohio",-81.7981908,41.4819932
"682","Lakewood city","Washington","Small","Bike",128,0.5,0.4,"WA","West","Lakewood city, Washington",-122.518458,47.1717649
"683","Lancaster city","Ohio","Small","Bike",34,0.2,0.2,"OH","North Central","Lancaster city, Ohio",-82.5993294,39.7136754
"684","Lancaster city","Pennsylvania","Small","Bike",200,0.8,0.4,"PA","Northeast","Lancaster city, Pennsylvania",-76.3055144,40.0378755
"685","Lancaster city","Texas","Small","Bike",0,0,0.2,"TX","South","Lancaster city, Texas",-96.7561082,32.5920798
"686","Lansing village","Illinois","Small","Bike",3,0,0.1,"IL","North Central","Lansing village, Illinois",-87.538931,41.5647575
"687","Laramie city","Wyoming","Small","Bike",1088,6.8,1.8,"WY","West","Laramie city, Wyoming",-105.5911007,41.3113669
"688","Largo city","Florida","Small","Bike",441,1.4,0.6,"FL","South","Largo city, Florida",-82.7873244,27.9094665
"689","Lauderdale Lakes city","Florida","Small","Bike",15,0.1,0.2,"FL","South","Lauderdale Lakes city, Florida",-80.2083806,26.1664736
"690","Lauderhill city","Florida","Small","Bike",51,0.2,0.2,"FL","South","Lauderhill city, Florida",-80.2133808,26.1403635
"691","Laurel city","Maryland","Small","Bike",143,1,1.2,"MD","South","Laurel city, Maryland",-76.8483061,39.0992752
"692","Lawndale city","California","Small","Bike",316,2.2,1.2,"CA","West","Lawndale city, California",-118.3525744,33.887237
"693","Lawrence city","Indiana","Small","Bike",0,0,0.1,"IN","North Central","Lawrence city, Indiana",-86.0252612,39.8386516
"694","Lawrence city","Kansas","Small","Bike",885,1.9,0.6,"KS","North Central","Lawrence city, Kansas",-95.2352501,38.9716689
"695","Lawrence city","Massachusetts","Small","Bike",9,0,0.1,"MA","Northeast","Lawrence city, Massachusetts",-71.1631137,42.7070354
"696","Lawrenceville city","Georgia","Small","Bike",0,0,0.3,"GA","South","Lawrenceville city, Georgia",-83.9879625,33.9562149
"697","Lawton city","Oklahoma","Small","Bike",75,0.2,0.1,"OK","South","Lawton city, Oklahoma",-98.3959291,34.6035669
"698","Layton city","Utah","Small","Bike",42,0.1,0.1,"UT","West","Layton city, Utah",-111.9710529,41.0602216
"699","League City city","Texas","Small","Bike",87,0.2,0.2,"TX","South","League City city, Texas",-95.0949303,29.5074538
"700","Leander city","Texas","Small","Bike",7,0.1,0.1,"TX","South","Leander city, Texas",-97.8530686,30.5788055
"701","Leavenworth city","Kansas","Small","Bike",159,1.1,0.6,"KS","North Central","Leavenworth city, Kansas",-94.9224637,39.3111112
"702","Leawood city","Kansas","Small","Bike",14,0.1,0.1,"KS","North Central","Leawood city, Kansas",-94.6169012,38.966673
"703","Lebanon city","Ohio","Small","Bike",0,0,0.3,"OH","North Central","Lebanon city, Ohio",-84.2029922,39.4353373
"704","Lebanon city","Pennsylvania","Small","Bike",118,1.1,0.9,"PA","Northeast","Lebanon city, Pennsylvania",-76.4113497,40.3409251
"705","Lebanon city","Tennessee","Small","Bike",12,0.1,0.2,"TN","South","Lebanon city, Tennessee",-86.2911024,36.2081098
"706","Lee's Summit city","Missouri","Small","Bike",8,0,0.1,"MO","North Central","Lee's Summit city, Missouri",-94.3821724,38.9108408
"707","Leesburg city","Florida","Small","Bike",50,0.7,0.9,"FL","South","Leesburg city, Florida",-81.8778582,28.810823
"708","Leesburg town","Virginia","Small","Bike",69,0.3,0.4,"VA","South","Leesburg town, Virginia",-77.5636015,39.1156615
"709","Lehi city","Utah","Small","Bike",26,0.1,0.2,"UT","West","Lehi city, Utah",-111.8507662,40.3916172
"710","Lemon Grove city","California","Small","Bike",31,0.3,0.2,"CA","West","Lemon Grove city, California",-117.0314172,32.7425516
"711","Lemoore city","California","Small","Bike",60,0.5,0.7,"CA","West","Lemoore city, California",-119.7829107,36.3007835
"712","Lenexa city","Kansas","Small","Bike",47,0.2,0.1,"KS","North Central","Lenexa city, Kansas",-94.7335709,38.9536174
"713","Leominster city","Massachusetts","Small","Bike",45,0.2,0.4,"MA","Northeast","Leominster city, Massachusetts",-71.759794,42.5250906
"714","Lewiston city","Idaho","Small","Bike",80,0.5,0.4,"ID","West","Lewiston city, Idaho",-117.001189,46.4004089
"715","Lewiston city","Maine","Small","Bike",65,0.4,0.3,"ME","Northeast","Lewiston city, Maine",-70.2147764,44.100351
"716","Lewisville city","Texas","Small","Bike",291,0.6,0.3,"TX","South","Lewisville city, Texas",-96.994174,33.046233
"717","Liberal city","Kansas","Small","Bike",110,1.2,1.2,"KS","North Central","Liberal city, Kansas",-100.920999,37.0430812
"718","Liberty city","Missouri","Small","Bike",4,0,0.1,"MO","North Central","Liberty city, Missouri",-94.4191177,39.2461138
"719","Libertyville village","Illinois","Small","Bike",90,0.9,0.6,"IL","North Central","Libertyville village, Illinois",-87.9531303,42.2830786
"720","Lima city","Ohio","Small","Bike",45,0.3,0.3,"OH","North Central","Lima city, Ohio",-84.1052256,40.742551
"721","Lincoln city","California","Small","Bike",118,0.8,0.6,"CA","West","Lincoln city, California",-121.2930079,38.891565
"722","Lincoln Park city","Michigan","Small","Bike",52,0.4,0.3,"MI","North Central","Lincoln Park city, Michigan",-83.1785361,42.2505943
"723","Linden city","New Jersey","Small","Bike",22,0.1,0.1,"NJ","Northeast","Linden city, New Jersey",-74.2445902,40.6220478
"724","Lindenhurst village","New York","Small","Bike",0,0,0.2,"NY","Northeast","Lindenhurst village, New York",-73.3734547,40.6867667
"725","Lino Lakes city","Minnesota","Small","Bike",38,0.4,0.3,"MN","North Central","Lino Lakes city, Minnesota",-93.0888324,45.1602442
"726","Lisle village","Illinois","Small","Bike",10,0.1,0.1,"IL","North Central","Lisle village, Illinois",-88.0747875,41.801141
"727","Little Elm city","Texas","Small","Bike",0,0,0.3,"TX","South","Little Elm city, Texas",-96.9375051,33.1626193
"728","Littleton city","Colorado","Small","Bike",93,0.4,0.2,"CO","West","Littleton city, Colorado",-105.0166498,39.613321
"729","Livermore city","California","Small","Bike",480,1.2,0.3,"CA","West","Livermore city, California",-121.7684732,37.6818688
"730","Livonia city","Michigan","Small","Bike",45,0.1,0.1,"MI","North Central","Livonia city, Michigan",-83.3527097,42.36837
"731","Lockport city","Illinois","Small","Bike",0,0,0.2,"IL","North Central","Lockport city, Illinois",-88.057837,41.5894752
"732","Lockport city","New York","Small","Bike",57,0.6,0.5,"NY","Northeast","Lockport city, New York",-78.6903098,43.1706128
"733","Lodi borough","New Jersey","Small","Bike",84,0.7,0.6,"NJ","Northeast","Lodi borough, New Jersey",-74.0831971,40.8823215
"734","Lodi city","California","Small","Bike",173,0.7,0.3,"CA","West","Lodi city, California",-121.2722194,38.1341477
"735","Logan city","Utah","Small","Bike",982,4.1,1.1,"UT","West","Logan city, Utah",-111.8338359,41.7369803
"736","Loma Linda city","California","Small","Bike",93,0.9,0.8,"CA","West","Loma Linda city, California",-117.2611527,34.0483474
"737","Lombard village","Illinois","Small","Bike",143,0.6,0.7,"IL","North Central","Lombard village, Illinois",-88.0078435,41.8800296
"738","Lomita city","California","Small","Bike",147,1.5,0.9,"CA","West","Lomita city, California",-118.3150722,33.7922392
"739","Lompoc city","California","Small","Bike",81,0.5,0.3,"CA","West","Lompoc city, California",-120.4579409,34.6391501
"740","Long Beach city","New York","Small","Bike",194,1.1,0.5,"NY","Northeast","Long Beach city, New York",-73.657908,40.5884373
"741","Long Branch city","New Jersey","Small","Bike",296,1.9,1.4,"NJ","Northeast","Long Branch city, New Jersey",-73.9923596,40.3042778
"742","Longmont city","Colorado","Small","Bike",410,1,0.3,"CO","West","Longmont city, Colorado",-105.1019275,40.1672068
"743","Longview city","Texas","Small","Bike",133,0.4,0.3,"TX","South","Longview city, Texas",-94.7404891,32.5007037
"744","Longview city","Washington","Small","Bike",141,1,0.5,"WA","West","Longview city, Washington",-122.9381672,46.1381676
"745","Lorain city","Ohio","Small","Bike",72,0.3,0.3,"OH","North Central","Lorain city, Ohio",-82.1823746,41.452819
"746","Los Altos city","California","Small","Bike",216,1.8,0.9,"CA","West","Los Altos city, California",-122.1141298,37.3852183
"747","Los Banos city","California","Small","Bike",48,0.4,0.4,"CA","West","Los Banos city, California",-120.8499151,37.0582786
"748","Los Gatos town","California","Small","Bike",96,0.7,0.5,"CA","West","Los Gatos town, California",-121.9623751,37.2358078
"749","Loveland city","Colorado","Small","Bike",297,0.9,0.4,"CO","West","Loveland city, Colorado",-105.0749801,40.3977612
"750","Loves Park city","Illinois","Small","Bike",36,0.3,0.4,"IL","North Central","Loves Park city, Illinois",-89.0581621,42.3200189
"751","Lufkin city","Texas","Small","Bike",72,0.5,0.4,"TX","South","Lufkin city, Texas",-94.729097,31.3382406
"752","Lumberton city","North Carolina","Small","Bike",13,0.2,0.3,"NC","South","Lumberton city, North Carolina",-79.0086424,34.6182199
"753","Lynchburg city","Virginia","Small","Bike",34,0.1,0.1,"VA","South","Lynchburg city, Virginia",-79.1422464,37.4137536
"754","Lynn city","Massachusetts","Small","Bike",280,0.7,0.5,"MA","Northeast","Lynn city, Massachusetts",-70.9494938,42.466763
"755","Lynnwood city","Washington","Small","Bike",31,0.2,0.2,"WA","West","Lynnwood city, Washington",-122.3151314,47.8209301
"756","Lynwood city","California","Small","Bike",114,0.5,0.3,"CA","West","Lynwood city, California",-118.2114603,33.930293
"757","Machesney Park village","Illinois","Small","Bike",21,0.2,0.2,"IL","North Central","Machesney Park village, Illinois",-89.0389956,42.3472406
"758","Macon city","Georgia","Small","Bike",46,0.1,0.1,"GA","South","Macon city, Georgia",-83.6324022,32.8406946
"759","Madera city","California","Small","Bike",89,0.5,0.4,"CA","West","Madera city, California",-120.0607176,36.9613356
"760","Madison city","Alabama","Small","Bike",56,0.3,0.3,"AL","South","Madison city, Alabama",-86.7483318,34.6992579
"761","Madison city","Mississippi","Small","Bike",0,0,0.3,"MS","South","Madison city, Mississippi",-90.1153638,32.4618086
"762","Madison Heights city","Michigan","Small","Bike",45,0.3,0.3,"MI","North Central","Madison Heights city, Michigan",-83.1052028,42.4858692
"763","Malden city","Massachusetts","Small","Bike",240,0.8,0.5,"MA","Northeast","Malden city, Massachusetts",-71.066163,42.4250964
"764","Manassas city","Virginia","Small","Bike",65,0.3,0.5,"VA","South","Manassas city, Virginia",-77.4752667,38.7509488
"765","Manhattan Beach city","California","Small","Bike",123,0.7,0.4,"CA","West","Manhattan Beach city, California",-118.4109089,33.8847361
"766","Manhattan city","Kansas","Small","Bike",357,1.2,0.5,"KS","North Central","Manhattan city, Kansas",-96.5716694,39.1836082
"767","Manitowoc city","Wisconsin","Small","Bike",146,0.9,0.5,"WI","North Central","Manitowoc city, Wisconsin",-87.657584,44.0886059
"768","Mankato city","Minnesota","Small","Bike",175,0.8,0.3,"MN","North Central","Mankato city, Minnesota",-93.9993996,44.1635775
"769","Mansfield city","Ohio","Small","Bike",11,0.1,0.1,"OH","North Central","Mansfield city, Ohio",-82.5154471,40.75839
"770","Mansfield city","Texas","Small","Bike",0,0,0.1,"TX","South","Mansfield city, Texas",-97.1416768,32.5631924
"771","Manteca city","California","Small","Bike",80,0.3,0.2,"CA","West","Manteca city, California",-121.2160526,37.7974273
"772","Maple Grove city","Minnesota","Small","Bike",69,0.2,0.1,"MN","North Central","Maple Grove city, Minnesota",-93.4557877,45.0724642
"773","Maple Heights city","Ohio","Small","Bike",28,0.3,0.4,"OH","North Central","Maple Heights city, Ohio",-81.565956,41.4153313
"774","Maple Valley city","Washington","Small","Bike",13,0.1,0.2,"WA","West","Maple Valley city, Washington",-122.0453589,47.3903403
"775","Maplewood city","Minnesota","Small","Bike",76,0.4,0.3,"MN","North Central","Maplewood city, Minnesota",-92.9952153,44.9530215
"776","Marana town","Arizona","Small","Bike",28,0.2,0.2,"AZ","West","Marana town, Arizona",-111.2224422,32.436381
"777","Margate city","Florida","Small","Bike",115,0.5,0.3,"FL","South","Margate city, Florida",-80.206436,26.2445263
"778","Maricopa city","Arizona","Small","Bike",158,0.8,0.9,"AZ","West","Maricopa city, Arizona",-112.0476423,33.0581063
"779","Marietta city","Georgia","Small","Bike",125,0.4,0.4,"GA","South","Marietta city, Georgia",-84.5499327,33.952602
"780","Marina city","California","Small","Bike",73,0.8,0.6,"CA","West","Marina city, California",-121.802173,36.6844029
"781","Marion city","Indiana","Small","Bike",79,0.7,0.4,"IN","North Central","Marion city, Indiana",-85.6591442,40.5583739
"782","Marion city","Iowa","Small","Bike",79,0.4,0.4,"IA","North Central","Marion city, Iowa",-91.5968958,42.033279
"783","Marion city","Ohio","Small","Bike",0,0,0.2,"OH","North Central","Marion city, Ohio",-83.1285242,40.5886699
"784","Marlborough city","Massachusetts","Small","Bike",0,0,0.2,"MA","Northeast","Marlborough city, Massachusetts",-71.5522874,42.3459271
"785","Marquette city","Michigan","Small","Bike",224,2.2,1,"MI","North Central","Marquette city, Michigan",-87.3953713,46.5436199
"786","Marshall city","Texas","Small","Bike",0,0,0.4,"TX","South","Marshall city, Texas",-94.3674184,32.5448714
"787","Marshalltown city","Iowa","Small","Bike",157,1.3,0.8,"IA","North Central","Marshalltown city, Iowa",-92.9080375,42.0494674
"788","Martinez city","California","Small","Bike",111,0.6,0.4,"CA","West","Martinez city, California",-122.1341321,38.0193657
"789","Maryland Heights city","Missouri","Small","Bike",0,0,0.2,"MO","North Central","Maryland Heights city, Missouri",-90.4298401,38.7131073
"790","Marysville city","Ohio","Small","Bike",5,0.1,0.1,"OH","North Central","Marysville city, Ohio",-83.3671432,40.2364486
"791","Marysville city","Washington","Small","Bike",63,0.2,0.2,"WA","West","Marysville city, Washington",-122.1770818,48.0517637
